id,nom,ville,arrondissement,quartier,type_batiment,latitude,longitude,telephone,nb_urnes,accessibilite_pmr,inscrits_2017,votants_2017,bulletins_nuls_2017,SVE_2017,taux_participation_2017,RDPC_votes_2017,CDP_votes_2017,EPG_votes_2017,SAJ_votes_2017,ESA_votes_2017,autres_votes_2017,inscrits_2018,votants_2018,bulletins_nuls_2018,SVE_2018,taux_participation_2018,RDPC_votes_2018,CDP_votes_2018,EPG_votes_2018,SAJ_votes_2018,ESA_votes_2018,autres_votes_2018,inscrits_2019,votants_2019,bulletins_nuls_2019,SVE_2019,taux_participation_2019,RDPC_votes_2019,CDP_votes_2019,EPG_votes_2019,SAJ_votes_2019,ESA_votes_2019,autres_votes_2019
BV-YAO-0001,Centre communautaire de Mfandena — Bureau 1,Yaoundé,Yaoundé IV,Mfandena,Centre communautaire,3.934737,11.558223,+237 692 833 942,3,Non,1019,490,6,484,0.481,303,31,26,28,41,55,1019,361,4,357,0.355,200,37,12,42,19,47,1019,660,18,642,0.648,480,25,19,33,36,49
BV-YAO-0002,Lycée Ngoa-Ekélé,Yaoundé,Yaoundé I,Ngoa-Ekélé,Lycée,3.810348,11.603801,+237 679 361 902,4,Non,519,250,10,240,0.482,162,6,11,20,17,24,519,195,8,187,0.377,105,2,28,3,24,25,519,257,7,250,0.496,144,10,28,5,31,32
BV-YAO-0003,Lycée Briqueterie,Yaoundé,Yaoundé VII,Briqueterie,Lycée,3.874384,11.445724,+237 679 050 024,4,Non,409,159,3,156,0.391,122,9,9,4,1,11,409,146,5,141,0.359,101,15,2,5,6,12,409,262,10,252,0.642,138,24,36,11,9,34
BV-YAO-0004,École primaire de Nkoabang — Bureau 1,Yaoundé,Yaoundé II,Nkoabang,École primaire,3.869365,11.445275,+237 690 345 558,4,Non,522,346,4,342,0.664,267,12,16,16,8,23,522,237,10,227,0.455,168,7,11,9,14,18,522,136,3,133,0.261,66,15,8,8,16,20
BV-YAO-0005,Centre communautaire Obili,Yaoundé,Yaoundé III,Obili,Centre communautaire,3.769268,11.543792,+237 233 236 013,1,Non,836,307,7,300,0.367,215,18,13,6,22,26,836,397,11,386,0.476,190,13,32,41,51,59,836,463,19,444,0.554,274,35,39,15,30,51
BV-YAO-0006,Bureau de Vote Mvog-Mbi N°8,Yaoundé,Yaoundé III,Mvog-Mbi,Bibliothèque municipale,3.955912,11.494168,+237 679 072 277,4,Non,777,401,6,395,0.517,278,19,19,23,21,35,777,267,3,264,0.344,185,20,17,15,3,24,777,201,5,196,0.259,148,1,2,13,17,15
BV-YAO-0007,Centre de Vote de Mokolo — Salle 2,Yaoundé,Yaoundé V,Mokolo,Collège,3.826192,11.607646,+237 693 094 549,3,Non,468,224,5,219,0.479,113,18,26,8,22,32,468,208,7,201,0.445,114,24,9,17,11,26,468,132,6,126,0.283,61,21,9,2,13,20
BV-YAO-0008,Centre social de Mfandena — Bureau 2,Yaoundé,Yaoundé IV,Mfandena,Centre social,3.802233,11.451886,+237 695 426 796,2,Oui,899,603,10,593,0.671,414,65,9,18,33,54,899,394,7,387,0.439,233,16,26,39,26,47,899,550,12,538,0.613,402,9,17,53,16,41
BV-YAO-0009,Bibliothèque municipale Ngoa-Ekélé,Yaoundé,Yaoundé IV,Ngoa-Ekélé,Bibliothèque municipale,3.87674,11.427549,+237 678 728 344,1,Non,244,123,3,120,0.506,82,6,5,12,3,12,244,126,5,121,0.52,75,4,7,5,16,14,244,152,4,148,0.625,117,8,1,1,11,10
BV-YAO-0010,Centre de Vote de Mvog-Beti — Salle 2,Yaoundé,Yaoundé VI,Mvog-Beti,Bibliothèque municipale,3.844585,11.541743,+237 677 551 243,1,Non,960,612,17,595,0.638,306,64,35,56,47,87,960,495,12,483,0.516,269,37,23,29,60,65,960,479,15,464,0.499,314,38,3,23,41,45
BV-YAO-0011,Centre social de Nkol-Eton — Bureau 5,Yaoundé,Yaoundé I,Nkol-Eton,Centre social,3.817408,11.435737,+237 690 597 697,2,Oui,907,664,12,652,0.733,489,5,37,26,46,49,907,337,14,323,0.372,241,17,10,11,19,25,907,460,14,446,0.507,314,29,6,7,50,40
BV-YAO-0012,Centre de Vote de Mvog-Ada — Salle 5,Yaoundé,Yaoundé II,Mvog-Ada,Centre culturel,3.906712,11.458071,+237 678 438 310,1,Non,513,282,9,273,0.551,168,26,25,9,13,32,513,271,13,258,0.53,208,11,4,7,13,15,513,131,2,129,0.257,101,5,4,6,4,9
BV-YAO-0013,Bureau de Vote Mvog-Atangana N°1,Yaoundé,Yaoundé II,Mvog-Atangana,École primaire,3.809922,11.487383,+237 679 812 833,2,Non,750,393,7,386,0.524,256,17,23,18,33,39,750,354,9,345,0.473,165,24,13,61,28,54,750,452,13,439,0.603,303,37,14,15,29,41
BV-YAO-0014,Centre de Vote de Ahala — Salle 3,Yaoundé,Yaoundé V,Ahala,École primaire,3.876953,11.551896,+237 691 356 051,3,Non,479,171,3,168,0.358,85,11,7,27,13,25,479,325,12,313,0.679,246,8,11,15,13,20,479,271,6,265,0.568,147,25,16,26,15,36
BV-YAO-0015,Centre de Vote de Nkolbisson — Salle 5,Yaoundé,Yaoundé VII,Nkolbisson,Centre communautaire,3.794359,11.527132,+237 695 834 169,1,Non,852,432,9,423,0.508,312,27,26,10,14,34,852,343,15,328,0.403,240,10,17,17,17,27,852,484,23,461,0.568,242,56,41,29,27,66
BV-YAO-0016,Mairie Elig-Essono,Yaoundé,Yaoundé II,Elig-Essono,Mairie,3.950125,11.531282,+237 243 128 282,1,Oui,178,93,2,91,0.527,71,1,2,6,5,6,178,74,1,73,0.417,37,4,9,8,4,11,178,107,3,104,0.603,73,6,2,5,8,10
BV-YAO-0017,Bureau de Vote Mvog-Ada 17,Yaoundé,Yaoundé III,Mvog-Ada,Salle polyvalente,3.883546,11.440179,+237 695 201 631,2,Non,410,144,3,141,0.353,73,6,17,22,2,21,410,262,4,258,0.64,138,20,15,39,10,36,410,239,4,235,0.585,186,8,3,5,18,15
BV-YAO-0018,Bureau de Vote Nkolo N°12,Yaoundé,Yaoundé I,Nkolo,Collège,3.769997,11.441354,+237 692 307 897,1,Non,703,517,14,503,0.736,251,43,41,14,78,76,703,308,12,296,0.438,181,33,16,28,4,34,703,391,16,375,0.558,202,18,27,31,45,52
BV-YAO-0019,Centre de Vote de Kondengui — Salle 1,Yaoundé,Yaoundé IV,Kondengui,Centre culturel,3.908798,11.513997,+237 242 457 284,4,Non,985,714,7,707,0.725,387,60,68,47,49,96,985,537,23,514,0.545,393,28,8,35,13,37,985,337,6,331,0.343,170,10,48,23,32,48
BV-YAO-0020,Bureau de Vote Yaoundé V — Nkoldongo 20,Yaoundé,Yaoundé V,Nkoldongo,Centre culturel,3.869951,11.598285,+237 233 596 802,1,Non,1122,839,23,816,0.748,471,110,41,79,11,104,1122,515,14,501,0.459,291,44,34,40,29,63,1122,473,13,460,0.422,316,8,61,10,21,44
BV-YAO-0021,Centre de Vote de Olembe — Salle 5,Yaoundé,Yaoundé V,Olembe,Centre culturel,3.869553,11.492364,+237 243 436 786,2,Non,607,392,16,376,0.646,289,9,11,14,27,26,607,352,14,338,0.581,223,35,32,7,6,35,607,222,6,216,0.366,160,16,6,11,6,17
BV-YAO-0022,Centre de Vote de Mfandena — Salle 1,Yaoundé,Yaoundé VII,Mfandena,Centre social,3.878096,11.560461,+237 242 463 249,3,Non,1045,454,16,438,0.435,202,44,57,11,53,71,1045,441,8,433,0.422,318,37,6,19,18,35,1045,363,8,355,0.347,166,13,24,9,86,57
BV-YAO-0023,Bureau de Vote Elig-Essono N°8,Yaoundé,Yaoundé I,Elig-Essono,Salle polyvalente,3.760516,11.557992,+237 678 507 409,1,Non,547,403,16,387,0.738,262,22,28,14,23,38,547,283,11,272,0.519,188,9,4,25,20,26,547,272,10,262,0.498,122,28,15,28,27,42
BV-YAO-0024,Bureau de Vote Bastos N°6,Yaoundé,Yaoundé VI,Bastos,Mairie,3.819445,11.530998,+237 693 259 113,1,Non,958,696,20,676,0.727,328,78,84,74,7,105,958,475,14,461,0.496,361,14,17,35,4,30,958,365,11,354,0.382,284,15,12,14,8,21
BV-YAO-0025,Bureau de Vote Yaoundé IV — Elig-Essono 25,Yaoundé,Yaoundé IV,Elig-Essono,Salle polyvalente,3.856023,11.503844,+237 233 615 926,4,Oui,1150,762,8,754,0.663,572,23,30,52,22,55,1150,679,32,647,0.591,497,15,29,46,15,45,1150,348,12,336,0.303,197,12,28,36,21,42
BV-YAO-0026,Bureau de Vote Yaoundé VI — Nkol-Eton 26,Yaoundé,Yaoundé VI,Nkol-Eton,Centre communautaire,3.765168,11.450295,+237 691 324 997,4,Oui,259,124,3,121,0.481,72,8,11,1,14,15,259,92,3,89,0.355,70,4,2,5,2,6,259,115,5,110,0.448,85,5,1,8,3,8
BV-YAO-0027,Mairie Messa,Yaoundé,Yaoundé VII,Messa,Mairie,3.87503,11.49174,+237 691 002 406,2,Non,219,135,4,131,0.62,65,12,19,8,7,20,219,126,4,122,0.575,99,3,7,3,3,7,219,86,3,83,0.395,67,1,2,1,7,5
BV-YAO-0028,Centre de Vote de Mvog-Beti — Salle 4,Yaoundé,Yaoundé VI,Mvog-Beti,Lycée,3.760066,11.445027,+237 678 449 780,3,Non,996,610,15,595,0.613,286,104,24,20,68,93,996,411,7,404,0.413,231,64,22,7,28,52,996,430,10,420,0.432,334,14,25,10,11,26
BV-YAO-0029,Bureau de Vote Mvog-Ada 29,Yaoundé,Yaoundé I,Mvog-Ada,Collège,3.946737,11.478529,+237 691 447 604,1,Non,459,182,3,179,0.397,124,5,24,4,5,17,459,250,10,240,0.545,168,15,14,20,1,22,459,212,3,209,0.463,98,25,14,16,23,33
BV-YAO-0030,Bureau de Vote Yaoundé VII — Biyem-Assi 30,Yaoundé,Yaoundé VII,Biyem-Assi,Collège,3.882131,11.42462,+237 692 632 638,3,Non,178,114,4,110,0.645,78,2,8,11,1,10,178,96,2,94,0.544,75,4,5,1,3,6,178,107,1,106,0.606,69,3,7,4,11,12
BV-YAO-0031,Collège Djoungolo,Yaoundé,Yaoundé V,Djoungolo,Collège,3.794823,11.45949,+237 691 857 369,3,Non,539,369,8,361,0.686,210,37,34,30,5,45,539,331,9,322,0.616,168,36,20,20,32,46,539,318,15,303,0.591,240,10,13,19,2,19
BV-YAO-0032,Bibliothèque municipale de Madagascar — Bureau 7,Yaoundé,Yaoundé III,Madagascar,Bibliothèque municipale,3.915403,11.564018,+237 695 183 366,4,Non,1191,567,9,558,0.477,327,28,72,20,41,70,1191,821,14,807,0.69,562,65,35,26,45,74,1191,406,15,391,0.341,309,6,30,19,2,25
BV-YAO-0033,Bureau de Vote Yaoundé II — Olembe 33,Yaoundé,Yaoundé II,Olembe,Lycée,3.810528,11.586712,+237 679 600 556,3,Non,1029,646,27,619,0.628,300,79,55,52,37,96,1029,450,15,435,0.438,224,67,18,23,40,63,1029,464,7,457,0.452,350,23,26,3,23,32
BV-YAO-0034,Centre de Vote de Mvan — Salle 5,Yaoundé,Yaoundé I,Mvan,Centre culturel,3.834487,11.462057,+237 677 036 557,3,Non,772,470,7,463,0.61,283,25,23,43,35,54,772,284,9,275,0.369,160,6,28,21,25,35,772,420,17,403,0.544,224,55,8,44,18,54
BV-YAO-0035,Collège Nsam,Yaoundé,Yaoundé II,Nsam,Collège,3.789278,11.557552,+237 695 747 224,4,Oui,531,226,5,221,0.427,147,12,12,15,13,22,531,194,4,190,0.367,129,13,14,14,2,18,531,291,8,283,0.549,195,17,16,4,24,27
BV-YAO-0036,Bureau de Vote Nkol-Eton N°14,Yaoundé,Yaoundé V,Nkol-Eton,Lycée,3.865104,11.489342,+237 243 329 470,3,Non,1060,613,15,598,0.579,313,25,60,56,58,86,1060,685,9,676,0.647,321,44,112,35,57,107,1060,581,26,555,0.548,326,13,48,81,18,69
BV-YAO-0037,Bureau de Vote Yaoundé V — Nkoldongo 37,Yaoundé,Yaoundé V,Nkoldongo,Collège,3.904398,11.510517,+237 243 397 423,2,Oui,1106,412,14,398,0.373,295,9,16,22,25,31,1106,346,10,336,0.314,184,39,38,11,18,46,1106,381,18,363,0.345,187,21,52,8,42,53
BV-YAO-0038,Bureau de Vote Yaoundé VII — Ngousso 38,Yaoundé,Yaoundé VII,Ngousso,Centre social,3.817747,11.485281,+237 233 151 156,1,Oui,376,254,7,247,0.677,166,15,6,13,22,25,376,249,11,238,0.663,116,8,49,4,24,37,376,229,6,223,0.61,160,8,13,11,12,19
BV-YAO-0039,Centre de Vote de Mfandena — Salle 5,Yaoundé,Yaoundé II,Mfandena,Centre culturel,3.865452,11.448773,+237 690 761 570,1,Non,1122,435,6,429,0.389,217,14,54,49,31,64,1122,585,6,579,0.522,376,28,28,29,57,61,1122,535,15,520,0.477,388,41,8,31,12,40
BV-YAO-0040,Bureau de Vote Briqueterie 40,Yaoundé,Yaoundé V,Briqueterie,Lycée,3.865006,11.586958,+237 242 492 712,4,Non,417,173,5,168,0.416,94,6,17,10,19,22,417,161,6,155,0.388,119,11,4,5,5,11,417,258,7,251,0.621,150,15,26,26,3,31
BV-YAO-0041,Centre de Vote de Santa Barbara — Salle 3,Yaoundé,Yaoundé I,Santa Barbara,Salle polyvalente,3.890794,11.490253,+237 222 708 113,2,Non,270,190,8,182,0.705,123,12,15,4,10,18,270,174,7,167,0.646,121,6,1,16,9,14,270,148,4,144,0.552,75,13,4,24,7,21
BV-YAO-0042,Centre de Vote de Nkomo — Salle 3,Yaoundé,Yaoundé I,Nkomo,Mairie,3.831925,11.452163,+237 242 775 669,2,Oui,227,151,1,150,0.668,71,13,17,8,17,24,227,96,1,95,0.427,53,9,3,4,13,13,227,126,4,122,0.559,76,8,9,7,8,14
BV-YAO-0043,Bibliothèque municipale Briqueterie,Yaoundé,Yaoundé IV,Briqueterie,Bibliothèque municipale,3.940431,11.492163,+237 678 204 099,1,Non,1031,771,28,743,0.748,489,11,72,45,50,76,1031,406,7,399,0.394,254,30,17,12,42,44,1031,261,8,253,0.253,180,16,2,16,17,22
BV-YAO-0044,Centre culturel Mvog-Atangana,Yaoundé,Yaoundé IV,Mvog-Atangana,Centre culturel,3.937295,11.550808,+237 691 661 138,2,Non,457,254,11,243,0.556,120,14,24,4,44,37,457,185,3,182,0.406,112,17,17,9,6,21,457,258,10,248,0.566,191,7,17,10,6,17
BV-YAO-0045,Bureau de Vote Yaoundé IV — Melen 45,Yaoundé,Yaoundé IV,Melen,Mairie,3.863092,11.409774,+237 242 885 893,2,Non,352,159,5,154,0.454,85,11,17,19,1,21,352,237,9,228,0.676,171,15,3,8,14,17,352,128,1,127,0.366,84,12,9,3,6,13
BV-YAO-0046,Bureau de Vote Briqueterie N°16,Yaoundé,Yaoundé V,Briqueterie,Salle polyvalente,3.901464,11.536062,+237 243 963 502,2,Oui,319,170,3,167,0.533,133,5,10,8,1,10,319,133,1,132,0.418,94,4,12,2,8,12,319,173,6,167,0.544,120,15,5,11,1,15
BV-YAO-0047,Centre culturel de Nkolbisson — Bureau 1,Yaoundé,Yaoundé VI,Nkolbisson,Centre culturel,3.808522,11.444698,+237 693 261 286,2,Non,228,136,1,135,0.599,110,3,7,2,5,8,228,128,5,123,0.563,72,5,2,14,14,16,228,102,2,100,0.452,68,5,2,6,9,10
BV-YAO-0048,Centre de Vote de Oyomabang — Salle 5,Yaoundé,Yaoundé VII,Oyomabang,Salle polyvalente,3.917804,11.536358,+237 691 586 484,4,Non,254,135,4,131,0.533,95,10,6,4,5,11,254,96,4,92,0.382,58,5,5,10,3,11,254,156,2,154,0.617,107,7,4,12,10,14
BV-YAO-0049,Collège Simbock,Yaoundé,Yaoundé VI,Simbock,Collège,3.921337,11.436843,+237 243 863 096,4,Non,1055,373,9,364,0.354,242,39,5,11,30,37,1055,409,16,393,0.388,224,44,23,27,24,51,1055,344,6,338,0.326,161,29,61,26,8,53
BV-YAO-0050,Bureau de Vote Yaoundé III — Nkozoa 50,Yaoundé,Yaoundé III,Nkozoa,Centre social,3.842556,11.571802,+237 222 115 411,2,Oui,1152,787,12,775,0.684,619,35,44,23,7,47,1152,413,16,397,0.359,265,4,42,17,29,40,1152,429,18,411,0.373,243,44,4,22,47,51
BV-YAO-0051,Bureau de Vote Ngousso N°7,Yaoundé,Yaoundé VII,Ngousso,Centre culturel,3.90663,11.461941,+237 693 666 680,2,Non,1061,589,16,573,0.556,334,61,22,38,46,72,1061,355,16,339,0.335,265,14,11,9,17,23,1061,602,11,591,0.567,338,31,46,60,40,76
BV-YAO-0052,Salle polyvalente Simbock,Yaoundé,Yaoundé III,Simbock,Salle polyvalente,3.815952,11.488732,+237 693 490 023,3,Oui,977,506,21,485,0.519,389,12,15,27,13,29,977,377,14,363,0.387,238,15,23,21,28,38,977,582,18,564,0.596,433,16,10,34,32,39
BV-YAO-0053,Centre de Vote de Étoa-Meki — Salle 1,Yaoundé,Yaoundé IV,Étoa-Meki,Centre culturel,3.740933,11.518477,+237 678 863 161,4,Oui,714,401,6,395,0.563,312,25,22,4,7,25,714,432,11,421,0.605,319,2,25,27,17,31,714,189,3,186,0.265,116,16,16,7,10,21
BV-YAO-0054,Bureau de Vote Yaoundé VII — Simbock 54,Yaoundé,Yaoundé VII,Simbock,École primaire,3.882785,11.422567,+237 692 826 365,1,Non,851,544,22,522,0.64,387,32,25,10,27,41,851,263,8,255,0.309,178,19,8,18,9,23,851,481,22,459,0.565,274,16,18,52,43,56
BV-YAO-0055,Bureau de Vote Madagascar N°5,Yaoundé,Yaoundé III,Madagascar,Collège,3.947849,11.457192,+237 678 573 736,3,Oui,973,403,19,384,0.415,259,18,18,12,39,38,973,520,16,504,0.535,388,26,12,25,18,35,973,399,13,386,0.411,221,12,40,31,32,50
BV-YAO-0056,Centre social Madagascar,Yaoundé,Yaoundé VII,Madagascar,Centre social,3.775855,11.553145,+237 677 266 645,3,Oui,389,288,12,276,0.741,203,21,19,6,5,22,389,210,2,208,0.541,162,6,11,5,10,14,389,127,1,126,0.329,97,2,5,7,6,9
BV-YAO-0057,Bureau de Vote Yaoundé V — Étoa-Meki 57,Yaoundé,Yaoundé V,Étoa-Meki,Centre culturel,3.797784,11.469459,+237 690 875 925,1,Oui,1165,739,8,731,0.635,344,44,87,60,80,116,1165,466,14,452,0.401,259,20,30,51,34,58,1165,411,8,403,0.353,277,9,26,9,44,38
BV-YAO-0058,Bureau de Vote Ngousso N°14,Yaoundé,Yaoundé V,Ngousso,Salle polyvalente,3.862755,11.430902,+237 678 947 825,2,Oui,224,135,6,129,0.604,82,5,14,6,8,14,224,72,3,69,0.322,37,3,9,2,8,10,224,141,5,136,0.631,87,9,15,8,2,15
BV-YAO-0059,Centre social de Odza — Bureau 8,Yaoundé,Yaoundé V,Odza,Centre social,3.812179,11.405304,+237 677 519 471,4,Non,770,563,12,551,0.731,366,33,37,51,8,56,770,242,7,235,0.315,182,11,5,9,12,16,770,315,15,300,0.409,180,5,31,30,18,36
BV-YAO-0060,Bureau de Vote Yaoundé IV — Omnisports 60,Yaoundé,Yaoundé IV,Omnisports,Lycée,3.889182,11.575639,+237 679 057 055,3,Non,1126,565,12,553,0.502,267,34,39,33,94,86,1126,727,28,699,0.646,337,49,75,59,70,109,1126,632,15,617,0.562,423,5,55,36,40,58
BV-YAO-0061,Bureau de Vote Yaoundé I — Biteng 61,Yaoundé,Yaoundé I,Biteng,Bibliothèque municipale,3.883277,11.530699,+237 242 098 887,2,Non,1126,838,35,803,0.744,521,40,84,13,60,85,1126,596,22,574,0.53,351,58,54,32,12,67,1126,597,20,577,0.531,391,16,42,36,36,56
BV-YAO-0062,Bureau de Vote Nkolbikok N°9,Yaoundé,Yaoundé I,Nkolbikok,Bibliothèque municipale,3.871059,11.566072,+237 691 065 335,3,Oui,240,116,2,114,0.485,87,4,2,7,6,8,240,72,1,71,0.301,45,6,8,3,1,8,240,70,2,68,0.295,56,3,1,3,1,4
BV-YAO-0063,Mairie de Messa — Bureau 3,Yaoundé,Yaoundé I,Messa,Mairie,3.877134,11.502921,+237 243 944 256,2,Non,449,274,11,263,0.611,129,45,8,28,12,41,449,145,3,142,0.325,79,9,12,20,3,19,449,159,2,157,0.355,73,11,15,19,14,25
BV-YAO-0064,Centre culturel de Mvog-Atangana — Bureau 6,Yaoundé,Yaoundé VII,Mvog-Atangana,Centre culturel,3.856195,11.476632,+237 695 306 420,2,Non,597,311,4,307,0.521,162,48,8,42,3,44,597,185,8,177,0.311,133,8,6,6,11,13,597,363,12,351,0.608,169,45,5,56,21,55
BV-YAO-0065,Mairie de Nkolbikok — Bureau 5,Yaoundé,Yaoundé IV,Nkolbikok,Mairie,3.851712,11.593497,+237 678 313 767,1,Non,917,485,12,473,0.529,357,11,14,27,29,35,917,531,17,514,0.58,362,5,49,40,12,46,917,249,5,244,0.272,186,18,4,12,6,18
BV-YAO-0066,Centre communautaire de Melen — Bureau 2,Yaoundé,Yaoundé IV,Melen,Centre communautaire,3.808986,11.48485,+237 695 902 674,1,Non,819,605,16,589,0.739,320,99,22,14,53,81,819,358,10,348,0.438,273,6,28,11,7,23,819,264,2,262,0.323,156,4,22,23,25,32
BV-YAO-0067,Salle polyvalente de Mvog-Atangana — Bureau 2,Yaoundé,Yaoundé V,Mvog-Atangana,Salle polyvalente,3.822245,11.5948,+237 690 455 402,1,Non,965,578,10,568,0.6,366,85,42,6,8,61,965,412,16,396,0.427,227,51,26,36,5,51,965,524,20,504,0.544,365,20,18,54,5,42
BV-YAO-0068,Centre social Nsam,Yaoundé,Yaoundé III,Nsam,Centre social,3.826604,11.399397,+237 243 825 168,3,Oui,797,423,4,419,0.532,292,22,5,26,36,38,797,246,7,239,0.31,116,11,28,16,31,37,797,494,17,477,0.62,288,37,26,9,60,57
BV-YAO-0069,Bureau de Vote Ahala N°5,Yaoundé,Yaoundé IV,Ahala,Centre communautaire,3.884271,11.531647,+237 695 275 183,2,Oui,958,407,14,393,0.426,233,13,10,73,16,48,958,473,13,460,0.494,258,29,9,67,36,61,958,269,8,261,0.281,165,6,11,38,12,29
BV-YAO-0070,Centre culturel Nkoldongo,Yaoundé,Yaoundé VI,Nkoldongo,Centre culturel,3.756696,11.473648,+237 693 543 241,2,Non,232,171,3,168,0.741,82,20,4,25,11,26,232,108,5,103,0.468,57,7,5,16,4,14,232,148,6,142,0.64,110,4,2,3,13,10
BV-YAO-0071,Bureau de Vote Oyomabang N°17,Yaoundé,Yaoundé VI,Oyomabang,Collège,3.817378,11.591265,+237 694 985 836,4,Non,650,309,12,297,0.476,184,9,31,21,18,34,650,443,21,422,0.682,296,7,35,26,20,38,650,223,7,216,0.344,129,36,4,13,8,26
BV-YAO-0072,Bureau de Vote Omnisports N°2,Yaoundé,Yaoundé IV,Omnisports,École primaire,3.861664,11.552381,+237 222 562 423,2,Non,726,300,12,288,0.414,188,11,26,18,15,30,726,491,12,479,0.677,343,24,33,25,13,41,726,459,19,440,0.634,301,24,25,12,36,42
BV-YAO-0073,Mairie de Biteng — Bureau 1,Yaoundé,Yaoundé V,Biteng,Mairie,3.938459,11.506881,+237 694 291 095,3,Non,982,372,6,366,0.379,194,6,30,32,52,52,982,427,8,419,0.435,319,22,27,9,12,30,982,395,11,384,0.403,257,3,30,17,39,38
BV-YAO-0074,Bureau de Vote Yaoundé IV — Obili 74,Yaoundé,Yaoundé IV,Obili,École primaire,3.862072,11.477233,+237 243 869 831,4,Non,535,355,7,348,0.665,197,47,17,3,38,46,535,282,3,279,0.527,172,3,35,30,7,32,535,289,7,282,0.54,144,38,44,8,7,41
BV-YAO-0075,Centre social Nlongkak,Yaoundé,Yaoundé III,Nlongkak,Centre social,3.878764,11.524897,+237 679 220 816,1,Oui,571,350,11,339,0.614,185,37,35,33,3,46,571,283,6,277,0.497,218,14,6,17,4,18,571,284,9,275,0.498,138,32,30,8,26,41
BV-YAO-0076,Bureau de Vote Yaoundé I — Madagascar 76,Yaoundé,Yaoundé I,Madagascar,Lycée,3.778233,11.425564,+237 690 798 787,3,Non,802,397,19,378,0.496,193,43,33,31,22,56,802,542,6,536,0.677,414,26,26,31,2,37,802,485,13,472,0.606,259,47,63,6,33,64
BV-YAO-0077,Collège Bastos,Yaoundé,Yaoundé II,Bastos,Collège,3.834472,11.468216,+237 678 219 856,1,Oui,1179,694,18,676,0.589,385,41,103,38,22,87,1179,794,38,756,0.674,579,33,23,33,34,54,1179,531,8,523,0.451,287,10,30,69,56,71
BV-YAO-0078,Bibliothèque municipale de Obili — Bureau 3,Yaoundé,Yaoundé VI,Obili,Bibliothèque municipale,3.828575,11.426473,+237 690 758 929,2,Non,302,215,4,211,0.715,136,3,15,21,13,23,302,129,4,125,0.429,92,10,1,4,8,10,302,184,5,179,0.61,140,5,9,4,9,12
BV-YAO-0079,Bureau de Vote Mvog-Beti N°10,Yaoundé,Yaoundé III,Mvog-Beti,Bibliothèque municipale,3.884888,11.459243,+237 694 370 746,1,Oui,434,215,3,212,0.496,166,2,11,6,13,14,434,169,5,164,0.39,102,9,10,15,9,19,434,192,9,183,0.442,88,16,23,7,20,29
BV-YAO-0080,Centre de Vote de Carrière — Salle 5,Yaoundé,Yaoundé VI,Carrière,Centre culturel,3.842035,11.424207,+237 678 833 781,3,Non,1100,452,18,434,0.411,268,12,46,38,20,50,1100,690,25,665,0.628,376,57,19,93,33,87,1100,395,6,389,0.359,260,13,35,16,26,39
BV-YAO-0081,Centre de Vote de Ngoa-Ekélé — Salle 4,Yaoundé,Yaoundé I,Ngoa-Ekélé,Salle polyvalente,3.805046,11.472433,+237 691 415 946,4,Non,449,257,7,250,0.573,194,6,7,13,13,17,449,269,12,257,0.599,191,5,8,13,20,20,449,283,9,274,0.632,151,26,29,16,15,37
BV-YAO-0082,École primaire Efoulan,Yaoundé,Yaoundé IV,Efoulan,École primaire,3.819069,11.400694,+237 242 589 840,3,Non,1096,436,6,430,0.399,207,30,51,14,61,67,1096,340,13,327,0.311,263,13,5,12,15,19,1096,328,9,319,0.3,198,31,14,16,24,36
BV-YAO-0083,Centre de Vote de Carrière — Salle 1,Yaoundé,Yaoundé V,Carrière,Collège,3.899484,11.504657,+237 233 385 260,4,Oui,688,283,6,277,0.412,195,23,6,20,8,25,688,265,2,263,0.386,168,22,8,22,14,29,688,258,10,248,0.375,180,16,13,6,13,20
BV-YAO-0084,Bureau de Vote Yaoundé II — Carrière 84,Yaoundé,Yaoundé II,Carrière,Salle polyvalente,3.831936,11.583042,+237 692 337 125,1,Non,447,188,8,180,0.422,106,22,10,13,7,22,447,272,12,260,0.61,163,17,27,21,3,29,447,253,9,244,0.566,128,16,17,22,26,35
BV-YAO-0085,Bureau de Vote Nkozoa N°8,Yaoundé,Yaoundé V,Nkozoa,Salle polyvalente,3.816774,11.583856,+237 233 778 692,1,Non,849,570,12,558,0.672,285,29,21,111,30,82,849,361,10,351,0.425,174,7,39,37,41,53,849,267,8,259,0.315,119,31,18,36,13,42
BV-YAO-0086,Bureau de Vote Nkolo N°3,Yaoundé,Yaoundé I,Nkolo,Centre culturel,3.820483,11.596303,+237 693 603 016,1,Oui,702,271,5,266,0.387,166,13,19,25,13,30,702,271,10,261,0.387,149,35,17,17,9,34,702,391,6,385,0.557,256,20,24,17,29,39
BV-YAO-0087,Collège de Nkolbikok — Bureau 7,Yaoundé,Yaoundé IV,Nkolbikok,Collège,3.893233,11.519589,+237 691 912 999,4,Non,543,212,3,209,0.392,127,11,17,22,7,25,543,215,7,208,0.396,155,9,8,11,9,16,543,152,3,149,0.281,120,12,2,4,2,9
BV-YAO-0088,Centre de Vote de Biteng — Salle 3,Yaoundé,Yaoundé V,Biteng,Salle polyvalente,3.914283,11.560764,+237 692 883 981,2,Oui,406,154,5,149,0.38,96,3,11,7,16,16,406,186,6,180,0.459,124,9,4,21,5,17,406,109,4,105,0.27,72,11,2,4,6,10
BV-YAO-0089,Bureau de Vote Simbock N°10,Yaoundé,Yaoundé VI,Simbock,Bibliothèque municipale,3.91717,11.469554,+237 233 598 269,2,Non,194,88,2,86,0.457,66,2,5,6,1,6,194,86,2,84,0.448,56,5,6,4,4,9,194,89,4,85,0.46,69,2,2,2,5,5
BV-YAO-0090,Salle polyvalente de Cité Verte — Bureau 4,Yaoundé,Yaoundé IV,Cité Verte,Salle polyvalente,3.840981,11.509274,+237 695 873 134,2,Non,721,535,18,517,0.743,275,61,48,40,20,73,721,485,22,463,0.673,281,10,47,44,26,55,721,430,5,425,0.597,338,10,19,9,23,26
BV-YAO-0091,Bureau de Vote Yaoundé VII — Mokolo 91,Yaoundé,Yaoundé VII,Mokolo,Collège,3.839397,11.59479,+237 695 876 651,4,Oui,886,435,7,428,0.492,277,33,26,19,27,46,886,566,6,560,0.639,393,6,57,45,9,50,886,243,7,236,0.275,126,26,11,10,30,33
BV-YAO-0092,Centre communautaire de Nkozoa — Bureau 2,Yaoundé,Yaoundé II,Nkozoa,Centre communautaire,3.827943,11.599691,+237 692 302 527,1,Non,942,622,10,612,0.661,465,21,19,29,34,44,942,418,5,413,0.444,188,20,41,67,29,68,942,338,7,331,0.359,193,24,35,30,7,42
BV-YAO-0093,Mairie Olembe,Yaoundé,Yaoundé III,Olembe,Mairie,3.934098,11.557747,+237 677 856 542,3,Non,742,384,13,371,0.518,182,31,51,18,32,57,742,339,4,335,0.458,185,8,27,41,29,45,742,448,15,433,0.605,261,23,30,56,11,52
BV-YAO-0094,Collège Omnisports,Yaoundé,Yaoundé II,Omnisports,Collège,3.808691,11.585797,+237 693 110 305,4,Oui,1062,794,13,781,0.748,538,63,22,63,22,73,1062,384,6,378,0.362,292,12,27,4,17,26,1062,540,17,523,0.509,331,67,13,25,29,58
BV-YAO-0095,Salle polyvalente Nsam,Yaoundé,Yaoundé V,Nsam,Salle polyvalente,3.769228,11.524025,+237 242 975 957,1,Non,454,196,3,193,0.434,134,8,14,5,14,18,454,274,10,264,0.604,137,14,26,23,26,38,454,258,5,253,0.569,141,7,33,5,33,34
BV-YAO-0096,Bureau de Vote Olembe N°6,Yaoundé,Yaoundé IV,Olembe,Bibliothèque municipale,3.777329,11.499252,+237 678 724 154,3,Non,912,534,19,515,0.586,243,48,25,102,15,82,912,604,14,590,0.663,401,52,40,17,23,57,912,387,15,372,0.425,290,20,5,8,24,25
BV-YAO-0097,Collège de Elig-Essono — Bureau 6,Yaoundé,Yaoundé V,Elig-Essono,Collège,3.944268,11.543788,+237 679 773 437,1,Non,366,226,10,216,0.619,124,13,21,17,13,28,366,149,2,147,0.409,104,14,1,2,13,13,366,219,5,214,0.601,134,8,20,16,12,24
BV-YAO-0098,Centre de Vote de Ahala — Salle 2,Yaoundé,Yaoundé VII,Ahala,Bibliothèque municipale,3.782523,11.545911,+237 233 193 427,4,Non,1049,669,18,651,0.638,395,8,33,61,77,77,1049,340,15,325,0.325,155,21,9,63,26,51,1049,572,13,559,0.545,310,39,63,18,54,75
BV-YAO-0099,École primaire de Simbock — Bureau 7,Yaoundé,Yaoundé VII,Simbock,École primaire,3.848438,11.417729,+237 691 671 560,1,Oui,994,383,9,374,0.386,220,38,33,31,5,47,994,307,13,294,0.309,223,19,6,11,14,21,994,292,14,278,0.295,172,9,20,31,14,32
BV-YAO-0100,École primaire de Mvog-Atangana — Bureau 8,Yaoundé,Yaoundé VII,Mvog-Atangana,École primaire,3.87677,11.420819,+237 243 098 283,2,Oui,820,542,20,522,0.662,266,34,31,47,67,77,820,419,12,407,0.512,188,12,11,58,72,66,820,336,14,322,0.41,190,24,31,32,5,40
BV-YAO-0101,Centre social Nkol-Eton,Yaoundé,Yaoundé V,Nkol-Eton,Centre social,3.946469,11.455566,+237 233 168 432,3,Non,892,459,12,447,0.516,289,16,59,6,29,48,892,573,27,546,0.643,410,20,24,24,27,41,892,378,5,373,0.424,241,11,28,14,39,40
BV-YAO-0102,Centre de Vote de Ekounou — Salle 3,Yaoundé,Yaoundé V,Ekounou,École primaire,3.893118,11.510622,+237 242 844 192,2,Non,681,457,12,445,0.672,282,66,24,5,19,49,681,354,6,348,0.521,210,12,16,41,27,42,681,238,5,233,0.35,145,8,17,28,8,27
BV-YAO-0103,Bureau de Vote Mvog-Beti N°4,Yaoundé,Yaoundé I,Mvog-Beti,Centre culturel,3.755651,11.472048,+237 677 663 444,4,Non,638,328,8,320,0.514,214,4,41,24,5,32,638,192,2,190,0.302,141,9,3,10,12,15,638,183,8,175,0.287,98,19,14,16,5,23
BV-YAO-0104,Bureau de Vote Yaoundé I — Oyomabang 104,Yaoundé,Yaoundé I,Oyomabang,Lycée,3.800431,11.413623,+237 679 527 131,1,Non,265,117,3,114,0.445,81,3,10,2,8,10,265,143,6,137,0.542,69,17,6,16,8,21,265,142,6,136,0.54,97,10,4,4,9,12
BV-YAO-0105,Centre social de Nkoldongo — Bureau 5,Yaoundé,Yaoundé V,Nkoldongo,Centre social,3.879515,11.423162,+237 677 895 928,3,Non,783,398,7,391,0.508,269,58,8,8,11,37,783,265,8,257,0.34,202,10,10,8,10,17,783,258,9,249,0.33,163,6,24,24,6,26
BV-YAO-0106,Bureau de Vote Yaoundé VI — Biteng 106,Yaoundé,Yaoundé VI,Biteng,Centre culturel,3.817369,11.54415,+237 691 537 469,3,Oui,187,87,3,84,0.469,55,9,5,3,3,9,187,123,2,121,0.662,89,5,5,9,3,10,187,69,1,68,0.37,34,6,11,3,4,10
BV-YAO-0107,Bureau de Vote Yaoundé VII — Ekounou 107,Yaoundé,Yaoundé VII,Ekounou,Bibliothèque municipale,3.77617,11.506765,+237 233 319 160,3,Oui,433,308,7,301,0.711,218,9,29,13,7,25,433,168,1,167,0.389,98,16,5,6,21,21,433,175,2,173,0.405,131,1,9,10,9,13
BV-YAO-0108,Centre culturel de Etoudi — Bureau 3,Yaoundé,Yaoundé VII,Etoudi,Centre culturel,3.937726,11.527044,+237 242 942 733,4,Non,794,483,4,479,0.609,347,20,37,23,12,40,794,420,10,410,0.529,283,26,31,3,28,39,794,475,17,458,0.599,366,14,23,23,4,28
BV-YAO-0109,Bureau de Vote Yaoundé IV — Ngousso 109,Yaoundé,Yaoundé IV,Ngousso,Centre culturel,3.81356,11.437568,+237 690 454 315,1,Oui,424,176,3,173,0.417,127,7,12,4,9,14,424,154,6,148,0.364,76,5,23,6,16,22,424,108,2,106,0.256,55,11,11,3,10,16
BV-YAO-0110,Bureau de Vote Mokolo N°2,Yaoundé,Yaoundé II,Mokolo,Collège,3.910858,11.511818,+237 243 597 268,1,Non,1169,702,19,683,0.601,417,8,53,83,42,80,1169,405,6,399,0.347,207,41,32,15,46,58,1169,687,20,667,0.588,314,17,139,29,62,106
BV-YAO-0111,Bureau de Vote Yaoundé V — Nsam 111,Yaoundé,Yaoundé V,Nsam,Lycée,3.88947,11.499816,+237 679 703 591,3,Oui,591,415,18,397,0.703,293,16,21,12,23,32,591,381,4,377,0.646,215,4,29,45,35,49,591,382,9,373,0.648,178,33,60,29,14,59
BV-YAO-0112,Mairie Mvog-Beti,Yaoundé,Yaoundé VI,Mvog-Beti,Mairie,3.844495,11.6045,+237 694 331 320,4,Non,580,289,13,276,0.499,127,27,38,14,25,45,580,195,8,187,0.336,123,11,15,14,5,19,580,317,15,302,0.547,179,8,19,31,28,37
BV-YAO-0113,Centre de Vote de Nsam — Salle 4,Yaoundé,Yaoundé III,Nsam,Centre culturel,3.911306,11.507447,+237 693 725 308,4,Non,803,583,25,558,0.727,265,30,41,94,40,88,803,494,17,477,0.616,287,19,7,68,39,57,803,252,5,247,0.314,150,29,27,7,5,29
BV-YAO-0114,Centre de Vote de Mvog-Atangana — Salle 5,Yaoundé,Yaoundé III,Mvog-Atangana,Centre social,3.866524,11.444368,+237 690 851 105,1,Oui,298,149,3,146,0.502,109,6,13,5,2,11,298,208,7,201,0.7,143,12,5,10,13,18,298,150,2,148,0.504,90,15,7,6,12,18
BV-YAO-0115,Bureau de Vote Santa Barbara N°18,Yaoundé,Yaoundé V,Santa Barbara,Collège,3.777361,11.447156,+237 694 497 564,4,Non,277,129,5,124,0.469,74,7,11,7,10,15,277,127,3,124,0.459,65,7,17,4,13,18,277,75,1,74,0.271,59,7,1,1,1,5
BV-YAO-0116,Centre de Vote de Mvog-Atangana — Salle 3,Yaoundé,Yaoundé III,Mvog-Atangana,Centre social,3.830336,11.558921,+237 695 185 186,2,Non,1026,660,32,628,0.644,320,87,48,36,45,92,1026,665,22,643,0.649,328,47,25,67,81,95,1026,477,8,469,0.466,251,12,62,26,52,66
BV-YAO-0117,Bibliothèque municipale de Etoudi — Bureau 4,Yaoundé,Yaoundé II,Etoudi,Bibliothèque municipale,3.875393,11.440444,+237 233 088 848,2,Non,655,365,11,354,0.558,191,31,22,10,51,49,655,205,5,200,0.313,101,27,10,13,19,30,655,402,4,398,0.615,308,6,19,18,19,28
BV-YAO-0118,Centre social de Nsimeyong — Bureau 2,Yaoundé,Yaoundé IV,Nsimeyong,Centre social,3.875293,11.404145,+237 243 720 865,1,Oui,413,214,9,205,0.52,156,10,6,4,14,15,413,229,2,227,0.555,143,8,16,25,10,25,413,152,6,146,0.368,84,13,13,12,5,19
BV-YAO-0119,Bureau de Vote Cité Verte N°8,Yaoundé,Yaoundé VI,Cité Verte,Centre social,3.906262,11.567034,+237 243 429 200,2,Oui,974,725,29,696,0.745,550,68,18,9,7,44,974,312,14,298,0.321,149,46,6,8,44,45,974,421,4,417,0.433,319,8,24,17,19,30
BV-YAO-0120,Bureau de Vote Yaoundé VII — Nkolbisson 120,Yaoundé,Yaoundé VII,Nkolbisson,Mairie,3.760899,11.566947,+237 695 304 076,4,Oui,453,238,7,231,0.528,107,21,17,28,21,37,453,163,1,162,0.36,90,16,17,13,4,22,453,184,7,177,0.408,94,23,7,24,4,25
BV-YAO-0121,Bureau de Vote Nkolbisson N°4,Yaoundé,Yaoundé III,Nkolbisson,Lycée,3.944305,11.552759,+237 677 001 067,3,Non,508,270,13,257,0.532,150,6,26,25,18,32,508,157,2,155,0.31,76,10,11,11,23,24,508,287,3,284,0.567,211,9,14,13,15,22
BV-YAO-0122,Bureau de Vote Nkol-Afeme N°14,Yaoundé,Yaoundé III,Nkol-Afeme,Centre culturel,3.877606,11.447006,+237 694 872 883,2,Non,1143,653,9,644,0.572,465,19,49,47,10,54,1143,628,17,611,0.55,406,49,43,40,11,62,1143,319,7,312,0.28,143,29,48,5,36,51
BV-YAO-0123,Centre communautaire de Biteng — Bureau 2,Yaoundé,Yaoundé II,Biteng,Centre communautaire,3.889875,11.536878,+237 678 182 675,4,Non,409,274,8,266,0.672,207,13,14,10,4,18,409,173,5,168,0.423,130,5,3,4,14,12,409,263,9,254,0.644,149,17,20,11,25,32
BV-YAO-0124,Bureau de Vote Oyomabang N°13,Yaoundé,Yaoundé IV,Oyomabang,Centre communautaire,3.943959,11.545615,+237 691 146 674,2,Non,679,252,5,247,0.372,199,2,12,12,7,15,679,339,3,336,0.501,238,25,4,12,27,30,679,426,19,407,0.628,285,27,12,18,28,37
BV-YAO-0125,Bibliothèque municipale Ngousso,Yaoundé,Yaoundé VII,Ngousso,Bibliothèque municipale,3.896073,11.451837,+237 692 288 173,1,Oui,345,189,7,182,0.548,127,20,5,5,8,17,345,211,9,202,0.614,103,23,7,13,26,30,345,147,5,142,0.428,80,9,9,11,14,19
BV-YAO-0126,Bureau de Vote Mvog-Ada N°20,Yaoundé,Yaoundé VI,Mvog-Ada,Mairie,3.843092,11.544274,+237 694 952 017,1,Oui,691,325,6,319,0.471,212,8,7,29,31,32,691,450,18,432,0.652,247,29,26,8,66,56,691,278,13,265,0.403,160,12,29,26,6,32
BV-YAO-0127,Bureau de Vote Yaoundé III — Émana 127,Yaoundé,Yaoundé III,Émana,Lycée,3.886826,11.439838,+237 693 091 726,1,Oui,509,219,10,209,0.432,122,5,28,17,11,26,509,310,9,301,0.61,139,12,8,53,40,49,509,192,2,190,0.379,104,20,3,19,18,26
BV-YAO-0128,Bureau de Vote Mvog-Ada N°16,Yaoundé,Yaoundé IV,Mvog-Ada,Collège,3.841777,11.575189,+237 693 779 063,2,Oui,902,647,30,617,0.718,449,20,38,14,45,51,902,368,15,353,0.409,207,34,14,15,39,44,902,514,14,500,0.57,294,29,55,44,16,62
BV-YAO-0129,Bureau de Vote Yaoundé I — Mvan 129,Yaoundé,Yaoundé I,Mvan,Mairie,3.946889,11.477404,+237 233 557 270,4,Non,1120,838,24,814,0.748,554,51,56,19,56,78,1120,407,11,396,0.364,295,8,16,24,22,31,1120,603,24,579,0.539,434,35,9,49,8,44
BV-YAO-0130,Bureau de Vote Yaoundé V — Elig-Essono 130,Yaoundé,Yaoundé V,Elig-Essono,Collège,3.812067,11.580877,+237 695 800 192,1,Oui,1028,594,20,574,0.579,439,15,11,31,37,41,1028,538,18,520,0.524,360,5,7,58,42,48,1028,347,9,338,0.338,243,13,21,18,14,29
BV-YAO-0131,Mairie Ahala,Yaoundé,Yaoundé VI,Ahala,Mairie,3.943574,11.552803,+237 690 183 696,3,Non,918,665,16,649,0.725,478,26,18,39,37,51,918,355,14,341,0.387,248,19,15,9,22,28,918,440,11,429,0.48,253,10,43,61,9,53
BV-YAO-0132,Bibliothèque municipale Simbock,Yaoundé,Yaoundé I,Simbock,Bibliothèque municipale,3.878587,11.559303,+237 690 092 701,3,Non,157,63,2,61,0.407,36,3,5,7,2,8,157,65,1,64,0.416,47,3,2,4,3,5,157,73,2,71,0.466,45,6,1,5,6,8
BV-YAO-0133,Lycée Mvog-Mbi,Yaoundé,Yaoundé III,Mvog-Mbi,Lycée,3.851709,11.480515,+237 695 478 437,2,Oui,521,208,5,203,0.4,121,34,5,14,4,25,521,281,6,275,0.539,143,11,21,25,35,40,521,275,4,271,0.529,131,13,24,38,23,42
BV-YAO-0134,Centre communautaire Tsinga,Yaoundé,Yaoundé VII,Tsinga,Centre communautaire,3.911921,11.445667,+237 242 861 297,4,Oui,534,234,3,231,0.439,168,15,2,10,17,19,534,281,6,275,0.528,129,43,13,21,25,44,534,321,15,306,0.601,237,7,14,21,6,21
BV-YAO-0135,Bureau de Vote Yaoundé VI — Nkolbikok 135,Yaoundé,Yaoundé VI,Nkolbikok,Centre social,3.771802,11.440904,+237 695 022 104,1,Oui,1180,716,16,700,0.607,538,47,16,4,46,49,1180,637,25,612,0.54,323,23,43,20,116,87,1180,572,15,557,0.485,320,49,41,42,34,71
BV-YAO-0136,Bureau de Vote Yaoundé VII — Nkoabang 136,Yaoundé,Yaoundé VII,Nkoabang,Mairie,3.826469,11.39989,+237 222 905 010,1,Oui,745,309,12,297,0.415,137,28,11,28,45,48,745,410,4,406,0.551,316,13,23,11,16,27,745,317,8,309,0.426,220,10,20,25,7,27
BV-YAO-0137,Bureau de Vote Yaoundé II — Mvog-Ada 137,Yaoundé,Yaoundé II,Mvog-Ada,Collège,3.832807,11.421708,+237 693 991 908,2,Non,512,209,5,204,0.409,149,7,13,7,11,17,512,356,8,348,0.697,162,37,60,25,8,56,512,214,8,206,0.418,132,14,3,25,10,22
BV-YAO-0138,Bibliothèque municipale Nkoabang,Yaoundé,Yaoundé III,Nkoabang,Bibliothèque municipale,3.936798,11.481367,+237 242 304 117,3,Non,806,531,17,514,0.66,354,49,4,37,22,48,806,273,13,260,0.339,156,23,8,20,22,31,806,234,3,231,0.291,186,10,2,16,3,14
BV-YAO-0139,Bureau de Vote Yaoundé IV — Mfandena 139,Yaoundé,Yaoundé IV,Mfandena,Centre communautaire,3.863593,11.467346,+237 693 868 151,3,Non,398,151,3,148,0.379,96,2,14,12,8,16,398,240,5,235,0.604,169,6,10,21,9,20,398,204,10,194,0.513,91,18,33,10,11,31
BV-YAO-0140,Centre de Vote de Tsinga — Salle 3,Yaoundé,Yaoundé IV,Tsinga,Bibliothèque municipale,3.870745,11.598011,+237 678 933 260,3,Oui,888,514,6,508,0.58,276,64,12,70,16,70,888,338,7,331,0.381,156,42,29,42,9,53,888,365,16,349,0.412,232,27,5,9,41,35
BV-YAO-0141,Bureau de Vote Etoudi N°6,Yaoundé,Yaoundé VII,Etoudi,Centre social,3.806432,11.518301,+237 242 045 579,3,Non,822,369,5,364,0.449,214,20,48,30,7,45,822,256,4,252,0.312,124,11,29,12,37,39,822,496,15,481,0.604,279,31,18,49,43,61
BV-YAO-0142,Mairie de Nkol-Afeme — Bureau 8,Yaoundé,Yaoundé VI,Nkol-Afeme,Mairie,3.798106,11.566857,+237 695 500 166,4,Non,198,74,3,71,0.377,43,3,7,4,5,9,198,118,3,115,0.599,59,9,13,3,14,17,198,119,3,116,0.602,91,1,6,4,7,7
BV-YAO-0143,Bureau de Vote Yaoundé III — Mfandena 143,Yaoundé,Yaoundé III,Mfandena,Collège,3.919458,11.422464,+237 679 211 502,1,Oui,414,154,5,149,0.373,86,12,11,9,12,19,414,179,7,172,0.434,80,20,24,12,8,28,414,244,8,236,0.591,119,27,22,12,21,35
BV-YAO-0144,Centre social de Nsam — Bureau 3,Yaoundé,Yaoundé VI,Nsam,Centre social,3.777551,11.557782,+237 233 510 861,3,Non,303,154,1,153,0.511,96,6,12,11,11,17,303,178,3,175,0.59,100,16,5,20,11,23,303,144,1,143,0.478,103,8,9,5,6,12
BV-YAO-0145,Bureau de Vote Essos N°17,Yaoundé,Yaoundé IV,Essos,Bibliothèque municipale,3.880556,11.601705,+237 695 697 346,1,Non,445,303,12,291,0.683,145,24,13,35,30,44,445,271,3,268,0.61,173,25,23,6,12,29,445,140,6,134,0.315,69,5,15,20,5,20
BV-YAO-0146,Bureau de Vote Yaoundé VII — Melen 146,Yaoundé,Yaoundé VII,Melen,Lycée,3.885987,11.541759,+237 691 394 754,2,Non,296,188,4,184,0.638,118,14,12,8,12,20,296,124,2,122,0.42,83,15,6,3,3,12,296,138,4,134,0.469,98,1,7,9,8,11
BV-YAO-0147,Bureau de Vote Yaoundé II — Etoudi 147,Yaoundé,Yaoundé II,Etoudi,Bibliothèque municipale,3.902649,11.545239,+237 233 036 639,2,Non,262,102,4,98,0.392,65,5,3,4,11,10,262,147,5,142,0.564,100,17,3,5,4,13,262,114,3,111,0.436,78,10,6,2,5,10
BV-YAO-0148,École primaire de Tsinga — Bureau 3,Yaoundé,Yaoundé II,Tsinga,École primaire,3.876631,11.396414,+237 677 700 807,3,Non,505,342,15,327,0.677,235,4,17,31,12,28,505,242,4,238,0.48,167,22,10,12,5,22,505,154,6,148,0.307,103,3,9,12,7,14
BV-YAO-0149,Bureau de Vote Melen N°12,Yaoundé,Yaoundé VII,Melen,Bibliothèque municipale,3.858292,11.560084,+237 690 495 896,3,Non,717,390,16,374,0.545,301,24,19,2,6,22,717,424,5,419,0.592,260,14,21,38,38,48,717,379,5,374,0.53,247,18,10,25,36,38
BV-YAO-0150,Centre de Vote de Nkol-Eton — Salle 5,Yaoundé,Yaoundé IV,Nkol-Eton,Lycée,3.825734,11.551077,+237 690 881 192,4,Non,583,319,7,312,0.548,180,3,27,40,22,40,583,301,10,291,0.518,139,35,34,29,8,46,583,172,8,164,0.296,128,7,7,7,4,11
BV-YAO-0151,Bibliothèque municipale de Biyem-Assi — Bureau 6,Yaoundé,Yaoundé II,Biyem-Assi,Bibliothèque municipale,3.786761,11.496688,+237 233 533 785,2,Oui,867,447,9,438,0.516,243,20,7,72,37,59,867,277,10,267,0.32,147,39,28,10,7,36,867,507,7,500,0.586,254,30,25,58,59,74
BV-YAO-0152,Bureau de Vote Nkoabang N°10,Yaoundé,Yaoundé VII,Nkoabang,Mairie,3.85318,11.532478,+237 233 776 077,4,Non,569,235,3,232,0.414,129,28,11,8,25,31,569,216,5,211,0.38,130,21,11,7,17,25,569,277,2,275,0.488,210,11,8,16,10,20
BV-YAO-0153,Centre social Cité Verte,Yaoundé,Yaoundé II,Cité Verte,Centre social,3.805514,11.583884,+237 690 497 175,4,Non,366,150,7,143,0.411,103,13,5,5,5,12,366,158,4,154,0.432,84,3,17,7,22,21,366,153,5,148,0.419,93,12,12,13,1,17
BV-YAO-0154,Bureau de Vote Yaoundé II — Mokolo 154,Yaoundé,Yaoundé II,Mokolo,Lycée,3.873876,11.402446,+237 222 908 422,3,Non,1161,477,20,457,0.411,284,45,18,40,18,52,1161,740,34,706,0.638,413,71,55,45,34,88,1161,562,25,537,0.484,330,33,45,22,45,62
BV-YAO-0155,Salle polyvalente Mvog-Ada,Yaoundé,Yaoundé III,Mvog-Ada,Salle polyvalente,3.832996,11.508087,+237 677 054 681,4,Non,728,409,12,397,0.562,316,9,9,25,14,24,728,306,10,296,0.421,229,16,7,7,17,20,728,301,4,297,0.415,158,27,22,13,35,42
BV-YAO-0156,Centre de Vote de Santa Barbara — Salle 2,Yaoundé,Yaoundé VI,Santa Barbara,Collège,3.80212,11.439326,+237 242 556 785,4,Non,466,335,9,326,0.719,223,16,19,10,27,31,466,177,5,172,0.382,119,5,13,9,10,16,466,157,4,153,0.338,87,7,18,11,10,20
BV-YAO-0157,Bureau de Vote Yaoundé IV — Nkolo 157,Yaoundé,Yaoundé IV,Nkolo,Centre social,3.877616,11.435639,+237 694 165 034,1,Non,783,459,11,448,0.587,293,20,23,30,35,47,783,326,13,313,0.417,238,17,17,8,10,23,783,398,12,386,0.509,244,38,17,31,13,43
BV-YAO-0158,Bureau de Vote Yaoundé III — Nkolbisson 158,Yaoundé,Yaoundé III,Nkolbisson,Lycée,3.836253,11.439582,+237 694 354 318,4,Non,1095,590,13,577,0.539,350,11,15,89,44,68,1095,645,17,628,0.589,356,94,49,35,12,82,1095,524,24,500,0.479,254,52,12,39,69,74
BV-YAO-0159,Centre de Vote de Étoa-Meki — Salle 4,Yaoundé,Yaoundé V,Étoa-Meki,Bibliothèque municipale,3.882721,11.591934,+237 690 337 157,4,Oui,1121,641,13,628,0.573,342,22,121,25,32,86,1121,446,17,429,0.398,234,59,37,27,13,59,1121,398,18,380,0.356,233,9,23,62,8,45
BV-YAO-0160,Centre culturel Mimboman,Yaoundé,Yaoundé III,Mimboman,Centre culturel,3.815402,11.446762,+237 242 607 405,2,Non,339,212,8,204,0.625,112,4,24,14,22,28,339,186,2,184,0.549,96,16,15,24,6,27,339,98,4,94,0.291,54,5,6,8,9,12
BV-YAO-0161,Bureau de Vote Mfandena N°12,Yaoundé,Yaoundé III,Mfandena,Centre culturel,3.828878,11.454535,+237 691 488 449,2,Oui,639,343,4,339,0.537,184,31,36,36,5,47,639,308,8,300,0.483,155,24,28,40,9,44,639,317,13,304,0.497,187,27,16,7,32,35
BV-YAO-0162,Salle polyvalente de Nkomo — Bureau 4,Yaoundé,Yaoundé I,Nkomo,Salle polyvalente,3.886433,11.505516,+237 690 150 894,4,Non,679,355,8,347,0.523,268,11,23,16,5,24,679,366,18,348,0.54,205,10,19,52,19,43,679,354,15,339,0.522,181,17,39,12,42,48
BV-YAO-0163,Centre de Vote de Simbock — Salle 4,Yaoundé,Yaoundé V,Simbock,Centre culturel,3.871629,11.545756,+237 233 376 789,4,Non,966,407,16,391,0.422,305,9,11,23,17,26,966,588,13,575,0.609,300,92,27,11,62,83,966,483,13,470,0.501,365,24,21,11,17,32
BV-YAO-0164,Centre culturel de Nkomo — Bureau 8,Yaoundé,Yaoundé II,Nkomo,Centre culturel,3.928531,11.433002,+237 678 908 882,4,Non,1022,598,13,585,0.585,388,30,31,24,53,59,1022,436,9,427,0.427,213,29,70,27,23,65,1022,442,20,422,0.433,243,26,40,41,18,54
BV-YAO-0165,Centre communautaire de Nsam — Bureau 1,Yaoundé,Yaoundé VI,Nsam,Centre communautaire,3.886132,11.515313,+237 677 300 957,1,Non,190,140,5,135,0.74,68,18,8,11,10,20,190,132,6,126,0.699,81,4,3,19,5,14,190,56,2,54,0.298,35,4,4,4,1,6
BV-YAO-0166,Bureau de Vote Étoa-Meki 166,Yaoundé,Yaoundé IV,Étoa-Meki,Lycée,3.786933,11.498851,+237 233 746 016,3,Non,794,506,10,496,0.638,376,26,6,41,11,36,794,317,13,304,0.4,231,9,9,21,12,22,794,470,6,464,0.592,269,42,30,43,21,59
BV-YAO-0167,Bureau de Vote Yaoundé V — Mvog-Mbi 167,Yaoundé,Yaoundé V,Mvog-Mbi,Bibliothèque municipale,3.823089,11.474295,+237 693 919 538,2,Oui,155,106,3,103,0.689,60,7,13,7,3,13,155,57,2,55,0.372,46,1,2,1,2,3,155,68,1,67,0.441,34,9,6,4,4,10
BV-YAO-0168,Bureau de Vote Nkoldongo N°7,Yaoundé,Yaoundé VII,Nkoldongo,Centre social,3.876872,11.504101,+237 222 472 176,1,Non,897,464,15,449,0.517,243,6,29,58,51,62,897,508,9,499,0.567,299,39,39,23,39,60,897,458,10,448,0.511,235,36,18,45,50,64
BV-YAO-0169,Salle polyvalente de Omnisports — Bureau 6,Yaoundé,Yaoundé V,Omnisports,Salle polyvalente,3.745186,11.525061,+237 695 591 142,4,Non,683,476,11,465,0.698,342,20,26,29,11,37,683,389,14,375,0.57,187,39,56,17,19,57,683,387,17,370,0.567,176,23,31,47,34,59
BV-YAO-0170,Salle polyvalente Nsimeyong,Yaoundé,Yaoundé IV,Nsimeyong,Salle polyvalente,3.857515,11.521012,+237 678 226 359,3,Non,1016,429,20,409,0.423,326,14,12,12,20,25,1016,615,9,606,0.606,279,57,100,56,16,98,1016,507,19,488,0.5,378,32,8,25,12,33
BV-YAO-0171,Centre social de Biyem-Assi — Bureau 6,Yaoundé,Yaoundé III,Biyem-Assi,Centre social,3.859022,11.451716,+237 678 853 755,1,Oui,589,364,11,353,0.618,243,31,26,16,4,33,589,317,3,314,0.54,242,20,9,18,3,22,589,162,5,157,0.275,77,6,25,4,21,24
BV-YAO-0172,Centre de Vote de Cité Verte — Salle 1,Yaoundé,Yaoundé V,Cité Verte,Centre social,3.888433,11.578636,+237 242 230 746,1,Non,1151,655,8,647,0.57,402,8,67,62,34,74,1151,612,10,602,0.532,306,46,73,62,26,89,1151,611,19,592,0.532,302,56,76,31,40,87
BV-YAO-0173,Bibliothèque municipale de Biyem-Assi — Bureau 2,Yaoundé,Yaoundé II,Biyem-Assi,Bibliothèque municipale,3.798553,11.584062,+237 233 477 540,1,Non,471,316,3,313,0.673,199,14,7,29,30,34,471,310,4,306,0.66,141,22,9,36,48,50,471,271,9,262,0.576,135,10,19,36,24,38
BV-YAO-0174,Centre de Vote de Ngousso — Salle 1,Yaoundé,Yaoundé III,Ngousso,Mairie,3.7938,11.428411,+237 222 649 277,2,Non,186,87,3,84,0.47,67,4,4,2,2,5,186,119,1,118,0.643,80,1,15,7,3,12,186,94,1,93,0.51,69,8,5,3,1,7
BV-YAO-0175,École primaire Mokolo,Yaoundé,Yaoundé IV,Mokolo,École primaire,3.794926,11.589354,+237 678 025 932,4,Oui,159,92,2,90,0.583,50,4,10,8,6,12,159,49,1,48,0.31,39,1,1,3,2,2,159,55,1,54,0.351,30,1,8,5,2,8
BV-YAO-0176,Bureau de Vote Odza N°6,Yaoundé,Yaoundé III,Odza,École primaire,3.889514,11.451833,+237 692 044 329,1,Non,721,293,8,285,0.407,216,13,10,13,12,21,721,399,7,392,0.554,198,54,53,5,24,58,721,466,19,447,0.648,265,45,18,50,14,55
BV-YAO-0177,Collège Ngoa-Ekélé,Yaoundé,Yaoundé IV,Ngoa-Ekélé,Collège,3.879104,11.486997,+237 679 762 205,3,Non,729,407,10,397,0.558,245,22,30,39,15,46,729,399,17,382,0.549,287,20,13,8,25,29,729,376,13,363,0.517,288,7,4,9,32,23
BV-YAO-0178,Lycée Carrière,Yaoundé,Yaoundé V,Carrière,Lycée,3.915801,11.517702,+237 691 719 087,4,Non,619,299,6,293,0.485,175,5,12,26,39,36,619,333,14,319,0.538,192,17,24,29,19,38,619,274,8,266,0.443,212,11,7,8,11,17
BV-YAO-0179,Bureau de Vote Mvog-Mbi 179,Yaoundé,Yaoundé I,Mvog-Mbi,Lycée,3.794692,11.536772,+237 695 195 458,2,Non,411,238,6,232,0.58,135,13,4,47,4,29,411,222,7,215,0.542,122,3,7,21,34,28,411,201,5,196,0.491,147,4,9,9,12,15
BV-YAO-0180,Bureau de Vote Yaoundé VII — Mfandena 180,Yaoundé,Yaoundé VII,Mfandena,Centre culturel,3.879367,11.456509,+237 222 126 541,4,Non,400,193,5,188,0.483,132,13,8,8,10,17,400,128,1,127,0.321,83,10,4,9,7,14,400,108,2,106,0.272,60,6,7,1,18,14
BV-YAO-0181,Bureau de Vote Yaoundé VI — Odza 181,Yaoundé,Yaoundé VI,Odza,Salle polyvalente,3.910009,11.525698,+237 243 048 456,1,Non,551,296,7,289,0.538,159,15,18,30,28,39,551,189,5,184,0.343,124,2,2,18,20,18,551,326,15,311,0.592,182,29,10,36,15,39
BV-YAO-0182,Bureau de Vote Bastos 182,Yaoundé,Yaoundé III,Bastos,Collège,3.827707,11.536969,+237 692 034 718,3,Non,798,359,4,355,0.451,282,3,19,18,11,22,798,370,17,353,0.465,230,34,14,2,36,37,798,514,8,506,0.644,303,16,55,32,39,61
BV-YAO-0183,Salle polyvalente de Kondengui — Bureau 4,Yaoundé,Yaoundé II,Kondengui,Salle polyvalente,3.924785,11.427153,+237 695 721 517,2,Non,1064,600,20,580,0.564,364,45,61,38,7,65,1064,630,25,605,0.592,304,34,27,79,70,91,1064,416,7,409,0.391,303,20,30,19,5,32
BV-YAO-0184,Salle polyvalente de Nkolbikok — Bureau 7,Yaoundé,Yaoundé IV,Nkolbikok,Salle polyvalente,3.756305,11.491416,+237 678 574 500,4,Non,824,577,18,559,0.7,395,11,16,69,19,49,824,278,12,266,0.338,184,27,9,13,8,25,824,467,8,459,0.568,240,58,13,30,52,66
BV-YAO-0185,Bureau de Vote Carrière 185,Yaoundé,Yaoundé V,Carrière,École primaire,3.783066,11.468105,+237 695 735 002,2,Oui,597,332,16,316,0.557,170,10,34,33,25,44,597,217,7,210,0.364,161,11,2,11,10,15,597,239,6,233,0.4,171,19,9,11,4,19
BV-YAO-0186,Mairie de Carrière — Bureau 5,Yaoundé,Yaoundé IV,Carrière,Mairie,3.779074,11.487395,+237 222 629 902,1,Oui,586,240,6,234,0.411,115,11,34,32,6,36,586,208,7,201,0.356,98,34,7,7,24,31,586,351,4,347,0.599,178,26,36,23,33,51
BV-YAO-0187,Bureau de Vote Yaoundé VII — Oyomabang 187,Yaoundé,Yaoundé VII,Oyomabang,Mairie,3.879817,11.464563,+237 690 337 212,3,Non,259,120,4,116,0.465,56,7,13,9,13,18,259,83,1,82,0.323,49,6,11,2,4,10,259,73,1,72,0.285,47,7,1,8,1,8
BV-YAO-0188,Salle polyvalente Mimboman,Yaoundé,Yaoundé V,Mimboman,Salle polyvalente,3.806782,11.441428,+237 233 350 643,3,Non,558,286,11,275,0.514,133,30,25,22,22,43,558,294,11,283,0.528,174,14,24,33,5,33,558,147,4,143,0.264,101,2,4,11,12,13
BV-YAO-0189,Centre de Vote de Obili — Salle 4,Yaoundé,Yaoundé VII,Obili,Centre culturel,3.751576,11.475436,+237 692 189 476,4,Non,916,360,3,357,0.394,187,26,42,36,15,51,916,591,25,566,0.645,436,15,20,25,31,39,916,373,6,367,0.408,212,26,26,34,22,47
BV-YAO-0190,École primaire de Nkoldongo — Bureau 6,Yaoundé,Yaoundé VI,Nkoldongo,École primaire,3.801975,11.560082,+237 677 717 009,4,Non,767,511,9,502,0.667,239,39,22,62,61,79,767,266,6,260,0.348,193,17,5,3,22,20,767,396,14,382,0.518,186,4,32,55,46,59
BV-YAO-0191,Centre communautaire Melen,Yaoundé,Yaoundé VI,Melen,Centre communautaire,3.853404,11.423892,+237 222 017 237,2,Oui,417,201,3,198,0.484,102,8,20,16,23,29,417,252,11,241,0.606,158,4,14,24,16,25,417,210,6,204,0.505,122,4,19,24,10,25
BV-YAO-0192,École primaire de Mvog-Ada — Bureau 2,Yaoundé,Yaoundé III,Mvog-Ada,École primaire,3.865437,11.549683,+237 243 884 522,1,Oui,1160,452,14,438,0.39,348,15,15,15,18,27,1160,454,10,444,0.392,299,17,37,25,22,44,1160,694,22,672,0.599,477,32,65,25,14,59
BV-YAO-0193,Centre social de Biyem-Assi — Bureau 5,Yaoundé,Yaoundé I,Biyem-Assi,Centre social,3.915216,11.562274,+237 679 188 949,1,Non,547,380,6,374,0.695,172,43,48,25,25,61,547,301,11,290,0.551,195,13,29,19,5,29,547,174,6,168,0.319,80,29,6,11,15,27
BV-YAO-0194,Centre de Vote de Carrière — Salle 4,Yaoundé,Yaoundé I,Carrière,Mairie,3.834607,11.521485,+237 233 912 075,2,Oui,872,462,17,445,0.53,222,39,29,39,49,67,872,558,27,531,0.64,268,40,68,57,19,79,872,335,11,324,0.385,198,33,14,32,9,38
BV-YAO-0195,Bibliothèque municipale de Odza — Bureau 7,Yaoundé,Yaoundé III,Odza,Bibliothèque municipale,3.901095,11.544819,+237 233 746 649,1,Non,994,664,14,650,0.669,317,59,52,70,52,100,994,423,18,405,0.426,274,7,5,70,9,40,994,264,11,253,0.266,177,6,19,20,8,23
BV-YAO-0196,Collège de Efoulan — Bureau 3,Yaoundé,Yaoundé I,Efoulan,Collège,3.901079,11.566058,+237 243 149 050,2,Non,759,482,11,471,0.636,301,46,26,29,18,51,759,511,17,494,0.674,256,65,21,57,23,72,759,336,11,325,0.443,262,4,13,22,5,19
BV-YAO-0197,Centre culturel Messa,Yaoundé,Yaoundé I,Messa,Centre culturel,3.920185,11.504726,+237 693 830 563,4,Non,440,291,12,279,0.662,136,29,27,20,24,43,440,228,4,224,0.52,117,21,15,23,16,32,440,157,1,156,0.359,86,23,13,5,8,21
BV-YAO-0198,Centre de Vote de Biteng — Salle 5,Yaoundé,Yaoundé II,Biteng,Salle polyvalente,3.93971,11.497963,+237 679 665 075,1,Non,834,302,5,297,0.362,194,8,22,8,34,31,834,290,12,278,0.348,191,11,8,29,12,27,834,413,16,397,0.495,198,34,52,5,48,60
BV-YAO-0199,École primaire de Melen — Bureau 2,Yaoundé,Yaoundé V,Melen,École primaire,3.745925,11.485526,+237 243 807 095,3,Non,432,263,13,250,0.611,166,3,33,4,19,25,432,174,7,167,0.405,123,11,6,1,13,13,432,261,9,252,0.605,181,15,3,28,4,21
BV-YAO-0200,Bureau de Vote Yaoundé VI — Tsinga 200,Yaoundé,Yaoundé VI,Tsinga,Bibliothèque municipale,3.868423,11.605435,+237 695 669 643,4,Non,252,131,3,128,0.522,69,5,8,8,20,18,252,114,1,113,0.456,69,3,11,6,10,14,252,75,3,72,0.299,43,4,7,3,6,9
BV-YAO-0201,Bureau de Vote Yaoundé I — Nsam 201,Yaoundé,Yaoundé I,Nsam,École primaire,3.742626,11.497859,+237 694 954 519,4,Non,693,461,11,450,0.667,253,13,17,88,20,59,693,365,4,361,0.528,222,39,34,9,15,42,693,254,10,244,0.367,120,13,32,11,31,37
BV-YAO-0202,Centre social Nkol-Afeme,Yaoundé,Yaoundé V,Nkol-Afeme,Centre social,3.764726,11.43785,+237 243 230 562,3,Oui,955,703,31,672,0.736,406,56,61,62,7,80,955,311,6,305,0.326,158,47,28,20,8,44,955,560,10,550,0.587,432,7,11,31,33,36
BV-YAO-0203,Centre de Vote de Nkomo — Salle 4,Yaoundé,Yaoundé V,Nkomo,Centre social,3.892424,11.509783,+237 695 778 282,4,Oui,504,199,2,197,0.395,148,14,5,14,1,15,504,221,5,216,0.44,157,12,8,2,19,18,504,163,2,161,0.324,108,8,11,3,15,16
BV-YAO-0204,Lycée de Mfandena — Bureau 8,Yaoundé,Yaoundé I,Mfandena,Lycée,3.849162,11.478675,+237 243 416 315,2,Non,925,601,14,587,0.651,410,46,6,39,33,53,925,554,12,542,0.599,373,39,40,12,27,51,925,527,21,506,0.571,237,25,110,23,30,81
BV-YAO-0205,Centre de Vote de Nkolbisson — Salle 2,Yaoundé,Yaoundé VI,Nkolbisson,Lycée,3.865516,11.516244,+237 695 621 204,2,Oui,653,409,18,391,0.627,222,10,53,41,14,51,653,292,10,282,0.448,197,26,23,4,6,26,653,215,7,208,0.33,136,17,14,14,5,22
BV-YAO-0206,Centre communautaire Essos,Yaoundé,Yaoundé III,Essos,Centre communautaire,3.757238,11.487548,+237 693 585 535,3,Oui,1108,396,4,392,0.358,233,43,10,20,38,48,1108,511,25,486,0.462,289,40,34,26,38,59,1108,569,7,562,0.514,301,41,70,58,13,79
BV-YAO-0207,Bureau de Vote Yaoundé II — Biyem-Assi 207,Yaoundé,Yaoundé II,Biyem-Assi,Bibliothèque municipale,3.882743,11.482165,+237 693 444 704,2,Non,844,495,8,487,0.587,263,43,51,18,44,68,844,356,12,344,0.423,184,30,42,24,16,48,844,304,8,296,0.36,156,13,23,38,24,42
BV-YAO-0208,Bureau de Vote Yaoundé III — Nkolbikok 208,Yaoundé,Yaoundé III,Nkolbikok,Collège,3.925464,11.534363,+237 693 237 132,1,Oui,562,333,16,317,0.594,168,12,5,33,54,45,562,386,10,376,0.688,269,28,18,25,4,32,562,157,7,150,0.28,104,5,8,2,17,14
BV-YAO-0209,Bureau de Vote Yaoundé II — Mvan 209,Yaoundé,Yaoundé II,Mvan,Centre communautaire,3.85225,11.483217,+237 693 235 326,3,Non,434,175,3,172,0.405,117,10,9,14,5,17,434,290,11,279,0.67,210,2,12,14,20,21,434,220,9,211,0.509,147,12,22,2,9,19
BV-YAO-0210,Centre de Vote de Omnisports — Salle 2,Yaoundé,Yaoundé II,Omnisports,Centre communautaire,3.84015,11.543879,+237 694 519 430,1,Oui,233,155,6,149,0.668,93,8,9,12,10,17,233,155,3,152,0.666,110,3,13,12,1,13,233,59,1,58,0.257,47,1,1,4,1,4
BV-YAO-0211,Bureau de Vote Nkoldongo N°11,Yaoundé,Yaoundé II,Nkoldongo,Centre culturel,3.876691,11.531964,+237 222 547 904,4,Non,628,363,9,354,0.579,181,54,32,8,27,52,628,385,6,379,0.614,287,23,3,23,15,28,628,290,11,279,0.463,194,20,29,3,7,26
BV-YAO-0212,Bureau de Vote Oyomabang N°20,Yaoundé,Yaoundé IV,Oyomabang,Mairie,3.922088,11.438723,+237 695 816 395,4,Non,895,492,13,479,0.55,247,44,28,60,30,70,895,587,10,577,0.656,323,40,57,40,41,76,895,461,20,441,0.515,279,37,23,27,26,49
BV-YAO-0213,Collège Mendong,Yaoundé,Yaoundé VII,Mendong,Collège,3.783634,11.498674,+237 695 786 272,2,Oui,516,334,5,329,0.649,161,34,24,11,48,51,516,267,9,258,0.518,152,28,18,8,20,32,516,256,8,248,0.498,191,15,8,10,7,17
BV-YAO-0214,Centre social de Mokolo — Bureau 6,Yaoundé,Yaoundé VII,Mokolo,Centre social,3.88848,11.485788,+237 233 452 499,2,Oui,1055,477,8,469,0.453,280,24,13,70,25,57,1055,731,26,705,0.693,492,49,17,37,46,64,1055,585,22,563,0.555,378,42,39,22,26,56
BV-YAO-0215,Lycée Mimboman,Yaoundé,Yaoundé I,Mimboman,Lycée,3.803868,11.448651,+237 693 860 196,3,Oui,708,530,5,525,0.749,288,36,10,81,39,71,708,345,4,341,0.487,239,6,27,33,5,31,708,300,4,296,0.424,236,6,21,6,9,18
BV-YAO-0216,Bureau de Vote Ngoa-Ekélé N°15,Yaoundé,Yaoundé VI,Ngoa-Ekélé,Centre social,3.794595,11.550997,+237 242 932 119,4,Oui,928,643,26,617,0.693,318,16,68,69,56,90,928,505,15,490,0.544,380,16,36,6,19,33,928,495,9,486,0.534,264,45,23,39,48,67
BV-YAO-0217,Centre de Vote de Nkozoa — Salle 2,Yaoundé,Yaoundé II,Nkozoa,Collège,3.870838,11.518127,+237 222 995 809,1,Oui,1025,615,11,604,0.6,285,91,91,18,23,96,1025,637,25,612,0.622,438,23,60,31,8,52,1025,613,29,584,0.598,453,29,29,3,30,40
BV-YAO-0218,Lycée Mendong,Yaoundé,Yaoundé III,Mendong,Lycée,3.920014,11.440867,+237 678 676 751,1,Non,1068,641,15,626,0.601,350,19,24,72,78,83,1068,388,4,384,0.364,258,12,18,36,22,38,1068,448,6,442,0.42,333,9,11,50,6,33
BV-YAO-0219,Lycée de Efoulan — Bureau 8,Yaoundé,Yaoundé IV,Efoulan,Lycée,3.853874,11.407367,+237 243 444 491,3,Non,857,513,8,505,0.599,310,37,40,21,38,59,857,445,12,433,0.519,291,23,11,39,26,43,857,393,18,375,0.459,190,40,67,15,7,56
BV-YAO-0220,Centre communautaire Mfandena,Yaoundé,Yaoundé VII,Mfandena,Centre communautaire,3.940623,11.474123,+237 678 100 988,4,Non,669,278,3,275,0.416,151,21,24,31,10,38,669,285,4,281,0.426,205,15,3,11,24,23,669,294,7,287,0.44,163,28,23,24,11,38
BV-YAO-0221,Salle polyvalente Mendong,Yaoundé,Yaoundé II,Mendong,Salle polyvalente,3.908144,11.469459,+237 222 633 711,1,Oui,1129,729,23,706,0.646,379,22,9,72,126,98,1129,769,28,741,0.682,545,16,25,53,43,59,1129,673,9,664,0.596,520,29,7,31,33,44
BV-YAO-0222,Centre communautaire Odza,Yaoundé,Yaoundé VII,Odza,Centre communautaire,3.911444,11.51747,+237 678 646 753,1,Non,748,494,16,478,0.662,295,25,33,29,41,55,748,327,13,314,0.438,177,17,31,33,15,41,748,329,4,325,0.441,162,23,19,36,36,49
BV-YAO-0223,Centre culturel Nsimeyong,Yaoundé,Yaoundé IV,Nsimeyong,Centre culturel,3.904133,11.427981,+237 692 481 074,3,Non,535,373,5,368,0.698,223,31,50,9,11,44,535,330,4,326,0.619,154,37,28,17,38,52,535,179,7,172,0.335,82,14,22,15,12,27
BV-YAO-0224,Lycée de Mvog-Mbi — Bureau 3,Yaoundé,Yaoundé I,Mvog-Mbi,Lycée,3.835244,11.395367,+237 679 915 292,4,Non,893,565,13,552,0.633,437,33,8,6,33,35,893,366,5,361,0.41,186,27,36,31,28,53,893,496,21,475,0.556,278,22,29,47,40,59
BV-YAO-0225,Centre de Vote de Elig-Essono — Salle 5,Yaoundé,Yaoundé II,Elig-Essono,Mairie,3.766027,11.506734,+237 679 714 392,2,Non,516,320,3,317,0.622,205,19,25,28,6,34,516,222,3,219,0.432,124,23,16,18,9,29,516,133,5,128,0.259,68,18,12,6,6,18
BV-YAO-0226,Bureau de Vote Yaoundé VII — Nkozoa 226,Yaoundé,Yaoundé VII,Nkozoa,Salle polyvalente,3.94807,11.498171,+237 679 773 067,3,Non,1018,731,32,699,0.719,383,80,71,31,39,95,1018,537,12,525,0.528,258,53,39,82,13,80,1018,308,4,304,0.304,208,2,25,18,22,29
BV-YAO-0227,Centre de Vote de Cité Verte — Salle 5,Yaoundé,Yaoundé II,Cité Verte,Salle polyvalente,3.842448,11.581829,+237 243 291 749,3,Oui,443,284,3,281,0.642,151,22,41,8,20,39,443,168,6,162,0.38,113,9,9,10,6,15,443,215,2,213,0.486,161,12,4,8,12,16
BV-YAO-0228,Bureau de Vote Nkomo 228,Yaoundé,Yaoundé V,Nkomo,Lycée,3.825256,11.476834,+237 678 751 853,2,Non,738,501,23,478,0.679,265,43,25,23,58,64,738,312,3,309,0.424,231,27,8,7,13,23,738,317,5,312,0.43,192,4,36,33,11,36
BV-YAO-0229,Salle polyvalente Mvog-Atangana,Yaoundé,Yaoundé IV,Mvog-Atangana,Salle polyvalente,3.856377,11.424026,+237 679 629 239,4,Non,642,379,11,368,0.591,189,34,11,60,20,54,642,406,12,394,0.633,239,34,11,43,20,47,642,252,5,247,0.393,178,6,13,10,19,21
BV-YAO-0230,Bureau de Vote Ngoa-Ekélé N°2,Yaoundé,Yaoundé VI,Ngoa-Ekélé,Lycée,3.770096,11.45812,+237 693 033 363,2,Non,656,372,10,362,0.568,214,41,30,5,27,45,656,280,12,268,0.428,138,28,9,17,37,39,656,168,6,162,0.257,129,2,1,6,14,10
BV-YAO-0231,Centre de Vote de Etoudi — Salle 1,Yaoundé,Yaoundé VII,Etoudi,Centre social,3.876026,11.579236,+237 691 923 303,1,Non,607,313,7,306,0.517,212,21,7,15,23,28,607,313,8,305,0.517,223,21,11,20,5,25,607,267,9,258,0.441,189,10,16,16,6,21
BV-YAO-0232,Bureau de Vote Yaoundé I — Nlongkak 232,Yaoundé,Yaoundé I,Nlongkak,Lycée,3.937395,11.502436,+237 690 610 868,3,Non,327,191,4,187,0.584,129,13,11,8,8,18,327,200,9,191,0.614,122,12,12,10,14,21,327,119,5,114,0.365,86,11,3,1,4,9
BV-YAO-0233,Collège Ekounou,Yaoundé,Yaoundé VI,Ekounou,Collège,3.748729,11.516231,+237 695 442 228,4,Oui,526,242,6,236,0.462,146,12,9,22,20,27,526,253,11,242,0.482,182,14,3,21,4,18,526,215,3,212,0.409,160,16,17,2,1,16
BV-YAO-0234,Salle polyvalente de Tsinga — Bureau 2,Yaoundé,Yaoundé VI,Tsinga,Salle polyvalente,3.778262,11.440748,+237 679 577 979,4,Non,265,175,4,171,0.661,108,10,5,11,18,19,265,147,6,141,0.557,101,5,3,9,11,12,265,151,2,149,0.573,113,8,4,8,5,11
BV-YAO-0235,Bureau de Vote Yaoundé II — Nlongkak 235,Yaoundé,Yaoundé II,Nlongkak,Mairie,3.851807,11.46281,+237 243 516 763,1,Oui,671,259,9,250,0.387,119,20,5,44,22,40,671,286,3,283,0.428,138,35,11,5,50,44,671,230,3,227,0.344,117,10,22,25,20,33
BV-YAO-0236,Centre de Vote de Nkoldongo — Salle 1,Yaoundé,Yaoundé I,Nkoldongo,Salle polyvalente,3.864176,11.43496,+237 690 107 378,2,Non,168,80,3,77,0.479,60,4,3,3,2,5,168,70,2,68,0.417,38,1,9,4,7,9,168,67,1,66,0.399,38,8,9,1,1,9
BV-YAO-0237,Centre culturel de Djoungolo — Bureau 3,Yaoundé,Yaoundé II,Djoungolo,Centre culturel,3.739592,11.513498,+237 243 624 792,3,Oui,742,341,6,335,0.46,218,21,5,9,47,35,742,449,13,436,0.606,242,17,59,20,40,58,742,400,5,395,0.539,283,37,19,18,4,34
BV-YAO-0238,Bureau de Vote Yaoundé VI — Nkolbisson 238,Yaoundé,Yaoundé VI,Nkolbisson,Mairie,3.784774,11.578905,+237 233 827 377,1,Non,926,687,28,659,0.742,336,92,60,31,43,97,926,457,12,445,0.494,295,21,46,22,16,45,926,383,12,371,0.415,208,24,41,11,38,49
BV-YAO-0239,Mairie de Odza — Bureau 2,Yaoundé,Yaoundé VI,Odza,Mairie,3.767912,11.434289,+237 677 950 522,4,Non,627,301,11,290,0.481,202,16,13,20,12,27,627,195,5,190,0.312,94,12,17,10,28,29,627,396,12,384,0.632,276,15,12,24,24,33
BV-YAO-0240,Centre de Vote de Mvan — Salle 2,Yaoundé,Yaoundé V,Mvan,École primaire,3.839496,11.463914,+237 695 632 217,2,Non,479,321,9,312,0.671,176,16,19,54,6,41,479,174,3,171,0.365,82,12,7,23,20,27,479,150,3,147,0.315,98,9,8,8,9,15
BV-YAO-0241,Bureau de Vote Yaoundé II — Mimboman 241,Yaoundé,Yaoundé II,Mimboman,Lycée,3.834109,11.448766,+237 679 087 695,2,Oui,511,193,8,185,0.379,108,12,7,19,16,23,511,247,5,242,0.485,155,31,20,3,7,26,511,276,11,265,0.541,154,36,18,5,19,33
BV-YAO-0242,Centre de Vote de Elig-Essono — Salle 2,Yaoundé,Yaoundé I,Elig-Essono,Lycée,3.844221,11.411619,+237 233 907 086,2,Non,765,498,6,492,0.651,297,12,38,37,49,59,765,450,19,431,0.589,343,3,26,26,6,27,765,258,4,254,0.338,142,4,17,32,25,34
BV-YAO-0243,Bureau de Vote Yaoundé VI — Messa 243,Yaoundé,Yaoundé VI,Messa,Collège,3.953328,11.531109,+237 243 731 091,2,Non,1080,537,7,530,0.498,314,22,51,58,20,65,1080,369,14,355,0.342,213,36,14,10,39,43,1080,552,20,532,0.512,357,45,15,12,50,53
BV-YAO-0244,Mairie de Santa Barbara — Bureau 1,Yaoundé,Yaoundé VI,Santa Barbara,Mairie,3.925013,11.515993,+237 679 964 414,2,Non,527,361,16,345,0.687,213,27,18,28,19,40,527,263,12,251,0.5,149,5,22,28,16,31,527,293,11,282,0.558,153,13,16,31,30,39
BV-YAO-0245,Centre de Vote de Obili — Salle 1,Yaoundé,Yaoundé IV,Obili,Mairie,3.811819,11.458625,+237 690 239 518,4,Non,249,156,6,150,0.628,110,9,9,8,2,12,249,148,7,141,0.595,89,2,11,14,9,16,249,91,2,89,0.368,56,3,3,11,6,10
BV-YAO-0246,Bureau de Vote Obili N°10,Yaoundé,Yaoundé I,Obili,Lycée,3.789552,11.500596,+237 243 595 277,1,Non,1032,761,12,749,0.738,517,15,60,64,23,70,1032,347,16,331,0.337,185,59,18,15,10,44,1032,607,15,592,0.589,337,9,39,108,22,77
BV-YAO-0247,Bureau de Vote Carrière N°11,Yaoundé,Yaoundé II,Carrière,École primaire,3.822939,11.608268,+237 695 275 856,1,Non,185,125,1,124,0.68,71,13,7,16,1,16,185,70,1,69,0.38,47,1,10,2,2,7,185,71,1,70,0.389,42,6,6,6,1,9
BV-YAO-0248,Bureau de Vote Mvan 248,Yaoundé,Yaoundé III,Mvan,Centre communautaire,3.886926,11.574686,+237 694 180 447,3,Non,239,136,1,135,0.57,100,7,3,8,6,11,239,116,1,115,0.487,71,2,11,10,8,13,239,124,1,123,0.522,80,14,9,3,4,13
BV-YAO-0249,Bureau de Vote Mendong 249,Yaoundé,Yaoundé II,Mendong,Salle polyvalente,3.778475,11.52712,+237 695 435 412,3,Non,229,159,2,157,0.696,76,12,19,9,16,25,229,150,1,149,0.658,92,10,10,11,9,17,229,85,3,82,0.373,53,8,1,8,3,9
BV-YAO-0250,Bureau de Vote Nkolbikok N°3,Yaoundé,Yaoundé I,Nkolbikok,École primaire,3.946431,11.537247,+237 677 744 240,1,Non,452,334,8,326,0.739,189,19,28,33,16,41,452,261,5,256,0.578,141,5,25,19,32,34,452,281,12,269,0.623,185,22,13,10,14,25
BV-YAO-0251,Centre de Vote de Odza — Salle 3,Yaoundé,Yaoundé IV,Odza,Mairie,3.753408,11.451067,+237 243 316 171,4,Non,429,200,8,192,0.468,155,1,6,10,9,11,429,151,6,145,0.353,97,11,5,11,6,15,429,200,4,196,0.467,153,7,8,9,6,13
BV-YAO-0252,Bureau de Vote Émana N°11,Yaoundé,Yaoundé II,Émana,Centre culturel,3.87918,11.422431,+237 692 472 964,1,Non,985,568,25,543,0.577,403,6,30,29,33,42,985,522,6,516,0.531,320,19,23,83,12,59,985,338,14,324,0.344,235,14,16,23,9,27
BV-YAO-0253,Centre de Vote de Cité Verte — Salle 4,Yaoundé,Yaoundé V,Cité Verte,Bibliothèque municipale,3.883546,11.4654,+237 690 507 001,4,Non,1185,518,17,501,0.437,347,67,10,26,5,46,1185,360,6,354,0.305,281,2,20,9,20,22,1185,467,9,458,0.395,210,19,45,13,96,75
BV-YAO-0254,Centre de Vote de Melen — Salle 5,Yaoundé,Yaoundé II,Melen,Lycée,3.82331,11.484183,+237 677 524 518,1,Non,304,139,3,136,0.459,82,2,5,11,20,16,304,95,3,92,0.313,76,2,2,6,1,5,304,171,5,166,0.563,113,7,17,2,11,16
BV-YAO-0255,Bureau de Vote Mvog-Atangana N°17,Yaoundé,Yaoundé I,Mvog-Atangana,Mairie,3.838199,11.393502,+237 679 697 456,2,Non,1031,758,15,743,0.736,379,47,44,69,95,109,1031,410,13,397,0.398,262,9,20,46,19,41,1031,411,17,394,0.399,272,3,26,39,17,37
BV-YAO-0256,Centre culturel de Bastos — Bureau 8,Yaoundé,Yaoundé VII,Bastos,Centre culturel,3.899234,11.441236,+237 690 679 369,2,Oui,856,603,23,580,0.705,454,16,13,36,23,38,856,451,20,431,0.527,329,15,23,14,19,31,856,484,20,464,0.566,236,47,45,42,25,69
BV-YAO-0257,Centre de Vote de Omnisports — Salle 4,Yaoundé,Yaoundé III,Omnisports,Salle polyvalente,3.781226,11.49406,+237 678 970 034,2,Oui,766,402,9,393,0.525,229,27,10,38,39,50,766,500,7,493,0.654,397,5,12,9,41,29,766,479,21,458,0.626,322,41,33,6,15,41
BV-YAO-0258,Centre communautaire Cité Verte,Yaoundé,Yaoundé VI,Cité Verte,Centre communautaire,3.948218,11.519538,+237 691 510 739,3,Non,563,207,9,198,0.369,154,9,1,6,14,14,563,201,2,199,0.358,143,11,3,13,12,17,563,304,13,291,0.54,222,17,8,5,18,21
BV-YAO-0259,Bureau de Vote Nsimeyong N°1,Yaoundé,Yaoundé IV,Nsimeyong,École primaire,3.917958,11.485585,+237 695 887 320,4,Non,780,572,26,546,0.734,427,21,25,14,23,36,780,306,15,291,0.393,142,3,49,45,7,45,780,354,9,345,0.455,172,45,30,26,20,52
BV-YAO-0260,Centre de Vote de Essos — Salle 4,Yaoundé,Yaoundé VII,Essos,Centre social,3.838578,11.556819,+237 222 092 343,4,Non,460,279,9,270,0.607,203,13,17,2,14,21,460,182,4,178,0.397,83,7,50,4,5,29,460,144,2,142,0.314,106,4,3,9,9,11
BV-YAO-0261,École primaire de Efoulan — Bureau 6,Yaoundé,Yaoundé VI,Efoulan,École primaire,3.855944,11.562866,+237 695 029 938,2,Non,852,582,7,575,0.684,426,5,4,46,49,45,852,493,24,469,0.579,287,50,35,35,7,55,852,235,6,229,0.276,142,19,16,15,11,26
BV-YAO-0262,Bureau de Vote Nlongkak 262,Yaoundé,Yaoundé III,Nlongkak,Centre social,3.865179,11.50165,+237 690 517 453,3,Non,669,446,10,436,0.668,227,17,32,64,33,63,669,406,16,390,0.607,250,11,27,13,47,42,669,391,8,383,0.585,257,36,6,10,36,38
BV-YAO-0263,Bureau de Vote Yaoundé VII — Ngousso 263,Yaoundé,Yaoundé VII,Ngousso,Mairie,3.872107,11.523809,+237 694 040 890,4,Non,350,195,7,188,0.557,101,15,5,19,22,26,350,219,7,212,0.626,143,4,5,15,24,21,350,93,2,91,0.268,63,2,10,3,4,9
BV-YAO-0264,Bureau de Vote Yaoundé II — Melen 264,Yaoundé,Yaoundé II,Melen,Mairie,3.802723,11.551381,+237 678 691 571,3,Oui,1066,762,13,749,0.715,593,27,31,11,40,47,1066,473,17,456,0.444,318,29,39,14,14,42,1066,690,23,667,0.647,367,26,21,68,95,90
BV-YAO-0265,Bureau de Vote Briqueterie N°20,Yaoundé,Yaoundé III,Briqueterie,Centre communautaire,3.845733,11.430492,+237 677 009 365,3,Non,362,150,7,143,0.415,93,1,9,14,11,15,362,149,6,143,0.412,84,20,3,9,9,18,362,205,8,197,0.569,107,28,15,5,15,27
BV-YAO-0266,Bureau de Vote Étoa-Meki N°20,Yaoundé,Yaoundé I,Étoa-Meki,Mairie,3.784463,11.421111,+237 695 092 190,1,Non,538,336,5,331,0.625,262,19,3,9,17,21,538,242,7,235,0.451,116,16,28,29,10,36,538,135,5,130,0.252,82,11,9,2,11,15
BV-YAO-0267,Bureau de Vote Yaoundé VII — Nkolbisson 267,Yaoundé,Yaoundé VII,Nkolbisson,Salle polyvalente,3.884759,11.575007,+237 692 065 585,1,Non,1138,564,20,544,0.496,308,45,34,38,48,71,1138,721,27,694,0.634,485,44,18,50,34,63,1138,298,5,293,0.262,182,26,23,13,15,34
BV-YAO-0268,Bureau de Vote Santa Barbara N°7,Yaoundé,Yaoundé VI,Santa Barbara,Lycée,3.840439,11.472291,+237 242 494 847,3,Oui,767,335,9,326,0.437,263,6,9,17,12,19,767,533,16,517,0.696,378,28,32,29,8,42,767,229,10,219,0.299,147,22,12,12,4,22
BV-YAO-0269,Centre de Vote de Djoungolo — Salle 2,Yaoundé,Yaoundé VI,Djoungolo,Salle polyvalente,3.923564,11.501661,+237 693 687 445,3,Non,533,188,8,180,0.353,111,6,6,16,20,21,533,312,14,298,0.587,227,3,22,8,16,22,533,323,5,318,0.606,242,7,20,11,15,23
BV-YAO-0270,Centre de Vote de Tsinga — Salle 5,Yaoundé,Yaoundé VI,Tsinga,Centre social,3.902482,11.483257,+237 242 090 883,4,Non,545,339,10,329,0.623,220,33,32,5,6,33,545,378,7,371,0.695,291,15,23,10,8,24,545,337,6,331,0.618,217,20,16,15,29,34
BV-YAO-0271,Centre culturel Biyem-Assi,Yaoundé,Yaoundé III,Biyem-Assi,Centre culturel,3.793361,11.5446,+237 242 942 887,3,Non,875,328,4,324,0.375,215,5,25,40,6,33,875,388,16,372,0.444,200,68,6,32,14,52,875,414,14,400,0.474,262,19,25,29,23,42
BV-YAO-0272,Centre culturel de Nkolbikok — Bureau 4,Yaoundé,Yaoundé VI,Nkolbikok,Centre culturel,3.863327,11.476682,+237 692 661 957,2,Oui,657,306,6,300,0.466,145,49,6,40,13,47,657,352,13,339,0.537,264,14,11,13,14,23,657,173,6,167,0.264,134,8,4,6,5,10
BV-YAO-0273,Bureau de Vote Madagascar N°12,Yaoundé,Yaoundé I,Madagascar,Mairie,3.820481,11.564789,+237 695 717 945,3,Non,991,730,24,706,0.737,567,33,19,20,25,42,991,472,7,465,0.476,260,11,59,33,40,62,991,363,8,355,0.367,202,40,12,27,28,46
BV-YAO-0274,Centre de Vote de Bastos — Salle 2,Yaoundé,Yaoundé II,Bastos,Centre social,3.773843,11.439587,+237 677 383 453,2,Oui,150,103,3,100,0.692,55,14,4,6,7,14,150,104,4,100,0.695,61,9,9,7,2,12,150,64,1,63,0.432,33,6,2,6,7,9
BV-YAO-0275,Bureau de Vote Mvog-Mbi 275,Yaoundé,Yaoundé IV,Mvog-Mbi,Lycée,3.814735,11.580683,+237 679 878 842,4,Oui,474,299,8,291,0.632,143,14,44,13,32,45,474,278,7,271,0.587,138,19,28,15,31,40,474,162,7,155,0.344,93,10,8,11,14,19
BV-YAO-0276,Centre communautaire de Nkol-Afeme — Bureau 6,Yaoundé,Yaoundé VI,Nkol-Afeme,Centre communautaire,3.810232,11.479035,+237 693 959 981,2,Non,1102,607,22,585,0.552,272,16,152,17,34,94,1102,561,12,549,0.509,356,48,30,16,41,58,1102,622,20,602,0.565,403,22,41,34,42,60
BV-YAO-0277,Centre de Vote de Ngousso — Salle 4,Yaoundé,Yaoundé IV,Ngousso,École primaire,3.84447,11.455306,+237 693 150 630,3,Non,473,344,10,334,0.728,180,10,45,34,18,47,473,228,11,217,0.482,155,11,16,15,1,19,473,231,11,220,0.49,148,12,15,8,15,22
BV-YAO-0278,Salle polyvalente de Mvog-Atangana — Bureau 1,Yaoundé,Yaoundé V,Mvog-Atangana,Salle polyvalente,3.795492,11.543852,+237 233 029 909,3,Non,807,580,14,566,0.72,381,12,47,42,28,56,807,266,12,254,0.331,151,5,26,10,31,31,807,280,2,278,0.348,189,24,13,23,2,27
BV-YAO-0279,Bureau de Vote Nkoabang N°3,Yaoundé,Yaoundé III,Nkoabang,Centre communautaire,3.770768,11.54334,+237 242 827 752,4,Oui,932,373,6,367,0.401,217,49,32,14,10,45,932,361,11,350,0.388,240,32,14,23,8,33,932,430,11,419,0.462,220,76,40,7,16,60
BV-YAO-0280,Centre social Santa Barbara,Yaoundé,Yaoundé III,Santa Barbara,Centre social,3.815354,11.549512,+237 677 779 756,1,Non,568,219,4,215,0.386,168,10,5,3,14,15,568,275,8,267,0.485,184,8,14,21,15,25,568,144,7,137,0.254,103,7,3,3,11,10
BV-YAO-0281,Lycée de Ahala — Bureau 6,Yaoundé,Yaoundé VII,Ahala,Lycée,3.932899,11.506881,+237 692 146 917,3,Non,1124,406,9,397,0.361,208,19,46,20,47,57,1124,445,19,426,0.396,289,19,23,37,17,41,1124,497,15,482,0.442,376,18,18,18,20,32
BV-YAO-0282,Centre social de Briqueterie — Bureau 1,Yaoundé,Yaoundé V,Briqueterie,Centre social,3.806501,11.516667,+237 690 966 718,3,Non,906,559,19,540,0.618,330,22,27,54,44,63,906,288,5,283,0.319,192,7,7,26,23,28,906,246,9,237,0.272,175,7,9,6,21,19
BV-YAO-0283,Centre communautaire de Kondengui — Bureau 6,Yaoundé,Yaoundé IV,Kondengui,Centre communautaire,3.781637,11.476616,+237 222 931 761,4,Non,1181,758,30,728,0.642,499,7,43,78,32,69,1181,713,13,700,0.604,435,6,69,63,47,80,1181,499,19,480,0.423,362,4,8,40,30,36
BV-YAO-0284,Bureau de Vote Yaoundé VI — Nkolbisson 284,Yaoundé,Yaoundé VI,Nkolbisson,Centre communautaire,3.881307,11.510339,+237 233 570 580,2,Non,284,136,3,133,0.481,99,7,6,3,7,11,284,181,2,179,0.638,138,2,11,8,8,12,284,174,2,172,0.614,127,2,6,18,5,14
BV-YAO-0285,Mairie Bastos,Yaoundé,Yaoundé II,Bastos,Mairie,3.804906,11.441975,+237 679 768 144,4,Oui,1102,639,19,620,0.58,478,30,7,40,22,43,1102,528,11,517,0.479,379,7,19,33,37,42,1102,378,5,373,0.343,246,23,46,8,12,38
BV-YAO-0286,Bureau de Vote Mfandena N°8,Yaoundé,Yaoundé VII,Mfandena,École primaire,3.861264,11.588236,+237 690 947 502,2,Oui,800,597,15,582,0.747,396,34,23,35,38,56,800,520,12,508,0.651,232,45,44,61,43,83,800,501,19,482,0.627,249,63,33,43,24,70
BV-YAO-0287,Bureau de Vote Biteng N°11,Yaoundé,Yaoundé VI,Biteng,Centre communautaire,3.92086,11.421238,+237 690 722 679,3,Non,999,481,15,466,0.482,341,45,12,4,26,38,999,403,18,385,0.404,238,25,7,38,33,44,999,419,5,414,0.42,308,23,25,3,23,32
BV-YAO-0288,Bureau de Vote Yaoundé IV — Ngousso 288,Yaoundé,Yaoundé IV,Ngousso,Bibliothèque municipale,3.806698,11.52326,+237 242 843 761,4,Non,1134,753,15,738,0.665,504,44,63,20,36,71,1134,418,8,410,0.369,199,9,60,22,56,64,1134,546,6,540,0.482,358,66,36,15,10,55
BV-YAO-0289,Salle polyvalente de Efoulan — Bureau 8,Yaoundé,Yaoundé V,Efoulan,Salle polyvalente,3.77706,11.574108,+237 233 507 229,3,Non,1166,609,20,589,0.522,393,21,43,33,40,59,1166,547,7,540,0.469,380,19,25,31,37,48,1166,695,21,674,0.597,496,41,8,49,26,54
BV-YAO-0290,Centre de Vote de Nkoldongo — Salle 3,Yaoundé,Yaoundé II,Nkoldongo,Salle polyvalente,3.768792,11.490751,+237 233 877 967,3,Oui,945,458,14,444,0.486,286,17,43,42,8,48,945,569,28,541,0.602,296,89,53,23,6,74,945,564,19,545,0.597,365,35,27,46,18,54
BV-YAO-0291,Bureau de Vote Mvan N°16,Yaoundé,Yaoundé II,Mvan,École primaire,3.770065,11.549444,+237 678 723 035,2,Non,201,101,3,98,0.504,74,4,6,1,6,7,201,128,2,126,0.638,71,4,15,8,11,17,201,103,2,101,0.517,60,7,8,6,8,12
BV-YAO-0292,Centre social de Mvog-Atangana — Bureau 6,Yaoundé,Yaoundé IV,Mvog-Atangana,Centre social,3.76891,11.427266,+237 222 095 565,3,Oui,586,392,15,377,0.67,201,17,11,40,55,53,586,296,3,293,0.506,147,20,39,30,13,44,586,226,11,215,0.386,139,2,12,17,22,23
BV-YAO-0293,Bureau de Vote Mendong 293,Yaoundé,Yaoundé II,Mendong,Lycée,3.855135,11.392602,+237 690 463 387,1,Non,418,160,6,154,0.383,108,13,14,2,3,14,418,252,7,245,0.604,122,13,24,19,30,37,418,250,11,239,0.6,147,23,11,24,6,28
BV-YAO-0294,Bureau de Vote Yaoundé I — Ahala 294,Yaoundé,Yaoundé I,Ahala,Collège,3.827633,11.57761,+237 242 617 334,2,Non,906,632,29,603,0.698,294,24,37,67,88,93,906,608,10,598,0.672,301,117,18,36,37,89,906,281,11,270,0.31,145,3,12,34,38,38
BV-YAO-0295,Bibliothèque municipale Djoungolo,Yaoundé,Yaoundé II,Djoungolo,Bibliothèque municipale,3.782096,11.512557,+237 678 923 764,3,Oui,472,257,6,251,0.546,157,11,20,18,17,28,472,210,9,201,0.445,120,13,15,14,14,25,472,210,8,202,0.446,148,11,12,1,14,16
BV-YAO-0296,Centre de Vote de Oyomabang — Salle 4,Yaoundé,Yaoundé II,Oyomabang,Lycée,3.862199,11.57209,+237 695 994 672,2,Oui,204,107,1,106,0.528,72,8,5,3,7,11,204,101,3,98,0.499,54,5,10,12,4,13,204,122,5,117,0.598,70,3,13,5,12,14
BV-YAO-0297,Bureau de Vote Yaoundé IV — Mendong 297,Yaoundé,Yaoundé IV,Mendong,Bibliothèque municipale,3.935019,11.519494,+237 692 382 381,1,Oui,194,136,1,135,0.705,95,8,1,13,6,12,194,131,6,125,0.678,99,4,6,3,5,8,194,99,4,95,0.515,67,6,3,7,3,9
BV-YAO-0298,Lycée Ahala,Yaoundé,Yaoundé V,Ahala,Lycée,3.872336,11.531502,+237 692 354 317,2,Non,278,128,3,125,0.463,60,11,13,10,11,20,278,193,9,184,0.696,93,12,32,11,8,28,278,97,3,94,0.351,77,4,2,5,1,5
BV-YAO-0299,Bureau de Vote Yaoundé VI — Omnisports 299,Yaoundé,Yaoundé VI,Omnisports,Salle polyvalente,3.866573,11.42075,+237 678 331 761,4,Non,411,222,8,214,0.542,168,5,13,1,13,14,411,192,8,184,0.469,134,2,12,10,11,15,411,112,1,111,0.273,78,9,1,5,8,10
BV-YAO-0300,Bureau de Vote Ekounou N°5,Yaoundé,Yaoundé IV,Ekounou,Bibliothèque municipale,3.803123,11.46062,+237 693 174 505,1,Non,181,81,1,80,0.448,47,6,4,7,6,10,181,66,2,64,0.368,48,1,4,5,1,5,181,102,4,98,0.569,54,11,7,2,11,13
BV-YAO-0301,Mairie de Ngousso — Bureau 1,Yaoundé,Yaoundé III,Ngousso,Mairie,3.893029,11.493941,+237 692 521 673,2,Non,640,438,18,420,0.685,277,6,38,31,25,43,640,232,6,226,0.363,166,13,5,13,11,18,640,331,14,317,0.517,197,23,12,25,24,36
BV-YAO-0302,Centre social de Nsam — Bureau 4,Yaoundé,Yaoundé II,Nsam,Centre social,3.836094,11.498678,+237 222 776 897,2,Non,924,658,29,629,0.713,496,30,25,24,14,40,924,629,21,608,0.682,278,80,58,49,44,99,924,323,15,308,0.35,192,34,36,5,6,35
BV-YAO-0303,Bureau de Vote Yaoundé IV — Messa 303,Yaoundé,Yaoundé IV,Messa,Centre communautaire,3.76829,11.524942,+237 222 441 215,3,Oui,235,133,3,130,0.569,81,11,2,12,9,15,235,141,3,138,0.603,101,5,5,6,10,11,235,65,1,64,0.279,39,2,5,7,3,8
BV-YAO-0304,Centre culturel de Nsam — Bureau 3,Yaoundé,Yaoundé II,Nsam,Centre culturel,3.827939,11.506138,+237 678 075 205,4,Non,823,453,11,442,0.551,240,11,48,31,51,61,823,305,13,292,0.372,207,4,14,25,16,26,823,208,7,201,0.254,145,11,3,14,11,17
BV-YAO-0305,Centre culturel de Briqueterie — Bureau 5,Yaoundé,Yaoundé VII,Briqueterie,Centre culturel,3.842437,11.436148,+237 691 577 547,4,Non,193,125,2,123,0.648,86,7,11,5,2,12,193,105,3,102,0.549,78,1,1,6,9,7,193,108,3,105,0.562,82,8,4,3,1,7
BV-YAO-0306,Mairie Mvan,Yaoundé,Yaoundé III,Mvan,Mairie,3.818673,11.548649,+237 679 623 930,2,Non,1198,494,21,473,0.413,324,16,32,12,44,45,1198,782,37,745,0.653,586,21,37,44,9,48,1198,459,13,446,0.384,299,26,21,27,29,44
BV-YAO-0307,Centre de Vote de Mvog-Atangana — Salle 2,Yaoundé,Yaoundé VI,Mvog-Atangana,Mairie,3.820823,11.601442,+237 694 963 157,1,Non,333,199,5,194,0.598,135,15,7,7,12,18,333,162,5,157,0.487,121,10,11,1,3,11,333,103,3,100,0.312,74,5,4,2,7,8
BV-YAO-0308,Bibliothèque municipale de Nkomo — Bureau 4,Yaoundé,Yaoundé VII,Nkomo,Bibliothèque municipale,3.880719,11.524974,+237 694 172 424,1,Non,1035,649,22,627,0.627,285,63,48,62,66,103,1035,702,32,670,0.679,527,18,29,18,35,43,1035,496,10,486,0.48,309,30,42,40,12,53
BV-YAO-0309,Centre social de Melen — Bureau 1,Yaoundé,Yaoundé I,Melen,Centre social,3.890615,11.566802,+237 243 224 589,3,Oui,899,410,7,403,0.457,306,15,16,18,19,29,899,306,12,294,0.341,142,14,31,44,17,46,899,477,18,459,0.531,295,47,24,27,17,49
BV-YAO-0310,Mairie Mvog-Ada,Yaoundé,Yaoundé III,Mvog-Ada,Mairie,3.820123,11.517642,+237 694 843 544,4,Oui,774,365,14,351,0.473,234,3,29,18,32,35,774,235,7,228,0.305,112,25,26,10,20,35,774,251,3,248,0.325,114,28,11,25,30,40
BV-YAO-0311,Bureau de Vote Yaoundé VI — Melen 311,Yaoundé,Yaoundé VI,Melen,Centre social,3.787566,11.472389,+237 679 353 451,3,Non,252,142,5,137,0.565,107,7,8,2,4,9,252,124,5,119,0.495,85,8,6,6,3,11,252,71,1,70,0.283,45,5,4,4,4,8
BV-YAO-0312,Bureau de Vote Yaoundé II — Nlongkak 312,Yaoundé,Yaoundé II,Nlongkak,École primaire,3.870198,11.582758,+237 678 516 695,2,Non,1063,391,12,379,0.368,256,35,14,22,15,37,1063,485,12,473,0.457,216,46,74,13,47,77,1063,646,30,616,0.608,312,55,55,30,72,92
BV-YAO-0313,Centre de Vote de Nsam — Salle 2,Yaoundé,Yaoundé I,Nsam,Bibliothèque municipale,3.818642,11.452287,+237 678 094 155,4,Oui,855,549,19,530,0.643,417,17,22,34,6,34,855,508,18,490,0.594,290,15,14,60,51,60,855,514,21,493,0.601,297,29,11,42,55,59
BV-YAO-0314,Bureau de Vote Yaoundé VI — Biteng 314,Yaoundé,Yaoundé VI,Biteng,Lycée,3.892932,11.528406,+237 693 722 043,2,Non,867,634,23,611,0.732,417,29,6,52,49,58,867,266,4,262,0.308,140,10,40,13,22,37,867,469,7,462,0.541,356,20,15,18,21,32
BV-YAO-0315,Bureau de Vote Yaoundé I — Mendong 315,Yaoundé,Yaoundé I,Mendong,Salle polyvalente,3.850784,11.566499,+237 677 085 282,1,Non,1079,540,9,531,0.501,259,17,75,17,81,82,1079,553,7,546,0.513,370,43,46,12,22,53,1079,313,6,307,0.291,219,10,12,19,21,26
BV-YAO-0316,Centre de Vote de Nsimeyong — Salle 5,Yaoundé,Yaoundé V,Nsimeyong,Centre social,3.875018,11.60746,+237 677 902 447,1,Non,1063,510,18,492,0.48,348,43,7,46,5,43,1063,344,13,331,0.324,162,21,39,39,19,51,1063,660,7,653,0.621,471,26,38,40,23,55
BV-YAO-0317,Bureau de Vote Yaoundé VI — Mvog-Atangana 317,Yaoundé,Yaoundé VI,Mvog-Atangana,Collège,3.888822,11.442258,+237 692 524 852,4,Non,1195,717,29,688,0.601,508,27,41,10,48,54,1195,461,10,451,0.386,271,40,5,35,46,54,1195,473,9,464,0.396,360,10,38,18,7,31
BV-YAO-0318,Centre social de Mvog-Ada — Bureau 6,Yaoundé,Yaoundé III,Mvog-Ada,Centre social,3.929262,11.503145,+237 690 687 170,2,Oui,330,127,3,124,0.386,94,7,1,6,6,10,330,198,7,191,0.603,100,20,7,17,19,28,330,183,8,175,0.555,127,9,9,8,7,15
BV-YAO-0319,Bureau de Vote Émana N°2,Yaoundé,Yaoundé I,Émana,Bibliothèque municipale,3.909919,11.434693,+237 691 135 539,2,Oui,532,347,14,333,0.653,183,30,23,31,21,45,532,278,7,271,0.524,168,19,22,26,5,31,532,215,5,210,0.406,109,21,18,19,13,30
BV-YAO-0320,Salle polyvalente de Etoudi — Bureau 6,Yaoundé,Yaoundé IV,Etoudi,Salle polyvalente,3.865525,11.484364,+237 691 878 017,1,Non,658,285,12,273,0.434,180,21,15,23,6,28,658,285,8,277,0.434,218,12,9,16,4,18,658,233,7,226,0.355,119,29,14,21,11,32
BV-YAO-0321,Centre de Vote de Nkolbisson — Salle 3,Yaoundé,Yaoundé V,Nkolbisson,Centre culturel,3.885489,11.595931,+237 692 597 113,1,Oui,422,241,7,234,0.573,124,36,20,18,3,33,422,267,3,264,0.635,124,21,32,25,20,42,422,243,9,234,0.578,168,8,14,9,15,20
BV-YAO-0322,Bureau de Vote Nkoldongo 322,Yaoundé,Yaoundé III,Nkoldongo,Collège,3.797132,11.414793,+237 678 888 593,2,Oui,800,451,10,441,0.564,293,29,46,23,5,45,800,547,26,521,0.684,359,10,57,33,13,49,800,403,17,386,0.505,293,8,26,20,11,28
BV-YAO-0323,Bureau de Vote Nsimeyong N°17,Yaoundé,Yaoundé II,Nsimeyong,Centre social,3.781204,11.518996,+237 693 583 206,2,Non,1171,649,29,620,0.555,365,56,27,31,64,77,1171,457,4,453,0.391,259,44,46,4,41,59,1171,357,10,347,0.305,164,58,22,43,5,55
BV-YAO-0324,Bureau de Vote Mimboman N°5,Yaoundé,Yaoundé I,Mimboman,Centre social,3.874865,11.604951,+237 242 173 440,4,Non,615,272,11,261,0.444,174,21,23,6,11,26,615,203,9,194,0.33,93,28,4,12,26,31,615,399,17,382,0.649,180,32,28,53,28,61
BV-YAO-0325,Bureau de Vote Nlongkak N°17,Yaoundé,Yaoundé I,Nlongkak,Lycée,3.930451,11.441655,+237 677 433 203,2,Non,615,387,4,383,0.63,200,21,47,44,16,55,615,427,6,421,0.696,264,38,37,15,20,47,615,377,12,365,0.614,262,27,4,18,23,31
BV-YAO-0326,Collège de Madagascar — Bureau 2,Yaoundé,Yaoundé IV,Madagascar,Collège,3.757303,11.513102,+237 693 607 559,4,Non,861,318,8,310,0.37,243,5,6,16,20,20,861,577,6,571,0.671,351,7,48,8,91,66,861,529,14,515,0.615,242,11,65,95,20,82
BV-YAO-0327,Centre communautaire de Nsimeyong — Bureau 4,Yaoundé,Yaoundé IV,Nsimeyong,Centre communautaire,3.886549,11.458802,+237 243 119 540,4,Non,1048,724,22,702,0.691,361,75,27,56,80,103,1048,532,24,508,0.508,394,8,7,16,49,34,1048,417,20,397,0.398,188,17,59,28,42,63
BV-YAO-0328,Centre social de Olembe — Bureau 8,Yaoundé,Yaoundé III,Olembe,Centre social,3.955189,11.499403,+237 679 812 668,4,Non,633,279,7,272,0.442,152,4,37,26,16,37,633,275,4,271,0.435,203,7,7,24,9,21,633,364,9,355,0.576,175,41,22,44,19,54
BV-YAO-0329,Bureau de Vote Yaoundé III — Nkoabang 329,Yaoundé,Yaoundé III,Nkoabang,Centre social,3.848044,11.427623,+237 243 023 119,2,Oui,493,315,10,305,0.64,193,16,37,23,2,34,493,220,9,211,0.448,153,12,3,16,9,18,493,192,2,190,0.391,116,8,22,13,9,22
BV-YAO-0330,Bureau de Vote Mvog-Ada 330,Yaoundé,Yaoundé II,Mvog-Ada,Collège,3.882714,11.509203,+237 222 898 793,4,Non,1001,660,17,643,0.66,317,43,68,63,54,98,1001,672,33,639,0.672,382,44,56,15,65,77,1001,625,14,611,0.625,454,19,12,68,11,47
BV-YAO-0331,Centre culturel de Mokolo — Bureau 3,Yaoundé,Yaoundé V,Mokolo,Centre culturel,3.868235,11.436613,+237 222 218 661,1,Oui,262,123,3,120,0.471,91,4,6,3,7,9,262,89,3,86,0.342,57,5,4,3,8,9,262,110,4,106,0.422,63,10,1,7,12,13
BV-YAO-0332,Bureau de Vote Nsimeyong 332,Yaoundé,Yaoundé V,Nsimeyong,Salle polyvalente,3.940996,11.443356,+237 222 378 538,2,Non,352,218,10,208,0.62,109,14,18,21,16,30,352,190,4,186,0.54,104,14,10,12,21,25,352,207,2,205,0.588,149,14,9,9,7,17
BV-YAO-0333,Centre de Vote de Cité Verte — Salle 3,Yaoundé,Yaoundé III,Cité Verte,Salle polyvalente,3.840955,11.524002,+237 679 132 512,4,Non,1168,805,19,786,0.689,484,17,27,41,126,91,1168,424,10,414,0.363,316,19,14,20,15,30,1168,308,13,295,0.264,215,5,19,12,20,24
BV-YAO-0334,Lycée Santa Barbara,Yaoundé,Yaoundé VII,Santa Barbara,Lycée,3.809689,11.485493,+237 695 771 089,1,Oui,1026,550,7,543,0.536,314,20,8,74,58,69,1026,315,6,309,0.307,214,22,6,23,15,29,1026,421,15,406,0.41,237,11,37,21,49,51
BV-YAO-0335,Salle polyvalente Mvog-Mbi,Yaoundé,Yaoundé III,Mvog-Mbi,Salle polyvalente,3.909434,11.564265,+237 242 714 012,3,Oui,825,339,5,334,0.412,188,27,28,34,13,44,825,575,8,567,0.697,422,28,30,29,14,44,825,494,20,474,0.599,219,53,58,11,56,77
BV-YAO-0336,Centre communautaire Mokolo,Yaoundé,Yaoundé V,Mokolo,Centre communautaire,3.84475,11.510485,+237 243 803 099,1,Non,876,532,11,521,0.608,419,16,22,30,3,31,876,599,20,579,0.684,321,22,25,40,93,78,876,561,27,534,0.641,395,43,11,4,39,42
BV-YAO-0337,Mairie Nkozoa,Yaoundé,Yaoundé VII,Nkozoa,Mairie,3.758645,11.490771,+237 694 988 112,1,Non,433,276,5,271,0.639,185,6,16,22,16,26,433,267,3,264,0.619,146,27,30,14,11,36,433,247,3,244,0.571,178,13,12,14,7,20
BV-YAO-0338,Salle polyvalente de Obili — Bureau 1,Yaoundé,Yaoundé VI,Obili,Salle polyvalente,3.900897,11.407361,+237 695 393 392,1,Oui,1132,844,39,805,0.746,426,88,39,48,90,114,1132,667,12,655,0.59,439,29,31,36,55,65,1132,645,14,631,0.57,486,30,39,20,12,44
BV-YAO-0339,Salle polyvalente de Nkozoa — Bureau 2,Yaoundé,Yaoundé V,Nkozoa,Salle polyvalente,3.88443,11.575744,+237 233 765 035,3,Oui,1021,468,21,447,0.459,229,16,11,57,68,66,1021,560,26,534,0.549,249,61,18,71,49,86,1021,653,17,636,0.64,410,55,19,33,51,68
BV-YAO-0340,Centre de Vote de Etoudi — Salle 3,Yaoundé,Yaoundé VII,Etoudi,Centre communautaire,3.888847,11.432821,+237 679 499 149,2,Non,446,156,3,153,0.351,81,12,26,8,4,22,446,179,3,176,0.403,83,22,25,14,4,28,446,209,5,204,0.469,95,25,11,6,34,33
BV-YAO-0341,Centre de Vote de Carrière — Salle 3,Yaoundé,Yaoundé IV,Carrière,Bibliothèque municipale,3.787308,11.537871,+237 694 271 935,3,Oui,620,450,5,445,0.727,346,16,15,30,8,30,620,201,3,198,0.326,161,6,7,6,7,11,620,375,15,360,0.605,252,22,24,25,4,33
BV-YAO-0342,Centre communautaire de Essos — Bureau 5,Yaoundé,Yaoundé V,Essos,Centre communautaire,3.758994,11.554716,+237 694 318 772,2,Oui,1116,450,8,442,0.404,340,15,24,22,10,31,1116,717,33,684,0.643,359,128,31,28,40,98,1116,477,21,456,0.428,234,59,18,51,27,67
BV-YAO-0343,Centre communautaire Mvog-Atangana,Yaoundé,Yaoundé I,Mvog-Atangana,Centre communautaire,3.785082,11.551925,+237 243 994 028,2,Oui,163,106,2,104,0.651,74,1,4,12,4,9,163,65,1,64,0.403,35,4,7,5,4,9,163,103,2,101,0.637,72,6,4,7,3,9
BV-YAO-0344,Bureau de Vote Ekounou N°18,Yaoundé,Yaoundé I,Ekounou,École primaire,3.851839,11.445888,+237 677 514 641,2,Oui,439,208,7,201,0.476,103,15,20,13,20,30,439,137,3,134,0.313,91,9,6,3,12,13,439,200,4,196,0.457,95,25,29,12,4,31
BV-YAO-0345,Salle polyvalente de Omnisports — Bureau 2,Yaoundé,Yaoundé VI,Omnisports,Salle polyvalente,3.938971,11.479122,+237 694 456 721,1,Non,888,368,9,359,0.415,176,31,28,17,52,55,888,372,8,364,0.42,274,16,20,19,8,27,888,359,8,351,0.405,208,25,25,25,25,43
BV-YAO-0346,Centre communautaire de Nkolo — Bureau 2,Yaoundé,Yaoundé VI,Nkolo,Centre communautaire,3.90062,11.436336,+237 690 979 117,4,Non,831,531,18,513,0.639,300,49,15,28,57,64,831,515,5,510,0.621,241,30,80,41,37,81,831,324,5,319,0.39,187,9,31,31,21,40
BV-YAO-0347,Bureau de Vote Yaoundé II — Nkoldongo 347,Yaoundé,Yaoundé II,Nkoldongo,Salle polyvalente,3.778926,11.450221,+237 690 681 443,4,Non,920,688,16,672,0.749,454,14,46,35,57,66,920,447,15,432,0.486,283,8,30,35,31,45,920,307,13,294,0.335,179,33,24,4,19,35
BV-YAO-0348,Bureau de Vote Mvog-Beti N°2,Yaoundé,Yaoundé III,Mvog-Beti,Centre communautaire,3.785705,11.49618,+237 694 801 737,1,Oui,1098,443,12,431,0.404,341,18,6,34,5,27,1098,566,21,545,0.516,320,53,28,48,28,68,1098,464,12,452,0.423,325,34,21,11,23,38
BV-YAO-0349,Centre social Simbock,Yaoundé,Yaoundé I,Simbock,Centre social,3.928494,11.562339,+237 695 032 029,3,Oui,1188,521,9,512,0.439,235,69,48,58,19,83,1188,616,8,608,0.519,409,61,39,21,18,60,1188,699,11,688,0.589,547,39,24,29,6,43
BV-YAO-0350,Bureau de Vote Mvog-Atangana 350,Yaoundé,Yaoundé IV,Mvog-Atangana,Centre social,3.873309,11.557096,+237 233 461 214,1,Oui,352,127,2,125,0.363,88,3,16,3,4,11,352,177,4,173,0.505,103,21,12,12,4,21,352,150,4,146,0.426,110,9,9,5,2,11
BV-YAO-0351,Mairie de Nkol-Afeme — Bureau 7,Yaoundé,Yaoundé V,Nkol-Afeme,Mairie,3.883373,11.524288,+237 693 129 360,2,Non,495,249,8,241,0.504,139,22,13,12,24,31,495,160,7,153,0.324,88,13,15,6,11,20,495,208,2,206,0.422,147,10,13,12,6,18
BV-YAO-0352,Bureau de Vote Yaoundé IV — Nkomo 352,Yaoundé,Yaoundé IV,Nkomo,Centre communautaire,3.935879,11.526448,+237 243 205 390,4,Non,719,469,15,454,0.653,325,21,16,28,25,39,719,343,8,335,0.478,181,43,10,47,8,46,719,439,14,425,0.611,246,9,34,16,66,54
BV-YAO-0353,Bureau de Vote Cité Verte 353,Yaoundé,Yaoundé V,Cité Verte,École primaire,3.798958,11.489982,+237 242 955 462,1,Non,733,546,23,523,0.746,364,25,26,32,28,48,733,394,8,386,0.538,281,6,6,33,28,32,733,273,5,268,0.373,189,25,11,10,9,24
BV-YAO-0354,Bureau de Vote Yaoundé I — Efoulan 354,Yaoundé,Yaoundé I,Efoulan,Centre culturel,3.845001,11.579028,+237 695 773 244,1,Non,455,231,4,227,0.51,148,16,17,5,17,24,455,153,3,150,0.338,91,2,16,20,3,18,455,153,7,146,0.337,90,9,8,11,11,17
BV-YAO-0355,Bureau de Vote Ekounou N°6,Yaoundé,Yaoundé II,Ekounou,Lycée,3.827961,11.545557,+237 678 329 097,4,Non,474,173,5,168,0.367,86,3,11,35,8,25,474,184,5,179,0.388,112,12,13,6,15,21,474,251,5,246,0.53,180,17,14,9,6,20
BV-YAO-0356,Centre social Bastos,Yaoundé,Yaoundé V,Bastos,Centre social,3.882884,11.53945,+237 693 824 229,4,Oui,428,171,4,167,0.4,120,5,9,15,4,14,428,290,3,287,0.678,220,4,6,21,16,20,428,146,3,143,0.343,73,5,6,3,35,21
BV-YAO-0357,Bureau de Vote Mfandena 357,Yaoundé,Yaoundé VII,Mfandena,Salle polyvalente,3.798099,11.474576,+237 692 953 799,4,Non,1134,845,17,828,0.745,646,35,20,54,18,55,1134,542,14,528,0.479,362,10,35,27,44,50,1134,736,28,708,0.649,424,53,74,32,40,85
BV-YAO-0358,Bureau de Vote Simbock 358,Yaoundé,Yaoundé VII,Simbock,Salle polyvalente,3.934488,11.514588,+237 694 403 523,3,Non,1103,672,12,660,0.61,364,25,82,89,11,89,1103,479,19,460,0.434,276,23,12,67,27,55,1103,468,5,463,0.424,247,44,46,47,14,65
BV-YAO-0359,Bureau de Vote Yaoundé IV — Djoungolo 359,Yaoundé,Yaoundé IV,Djoungolo,École primaire,3.909104,11.582086,+237 691 502 625,4,Oui,150,69,2,67,0.466,37,17,1,1,2,9,150,102,1,101,0.686,75,7,5,5,1,8,150,45,2,43,0.303,27,4,4,1,2,5
BV-YAO-0360,Salle polyvalente Nkolbikok,Yaoundé,Yaoundé III,Nkolbikok,Salle polyvalente,3.884698,11.450321,+237 242 618 456,3,Non,1005,371,7,364,0.369,232,37,18,22,15,40,1005,631,14,617,0.628,391,14,58,58,28,68,1005,340,7,333,0.339,181,26,53,4,23,46
BV-YAO-0361,École primaire de Émana — Bureau 2,Yaoundé,Yaoundé I,Émana,École primaire,3.791401,11.434561,+237 243 210 846,3,Oui,723,433,21,412,0.599,287,4,12,44,27,38,723,328,13,315,0.455,235,10,15,14,17,24,723,433,21,412,0.6,273,3,25,36,33,42
BV-YAO-0362,Lycée Olembe,Yaoundé,Yaoundé III,Olembe,Lycée,3.896641,11.5234,+237 694 190 276,2,Non,685,240,8,232,0.351,182,7,16,5,7,15,685,336,4,332,0.491,264,22,8,5,12,21,685,324,8,316,0.474,188,8,35,20,26,39
BV-YAO-0363,Bureau de Vote Yaoundé III — Odza 363,Yaoundé,Yaoundé III,Odza,Centre social,3.790019,11.487162,+237 691 875 711,3,Oui,995,556,17,539,0.559,411,15,11,30,33,39,995,656,7,649,0.66,321,71,16,69,73,99,995,543,17,526,0.546,383,27,28,38,7,43
BV-YAO-0364,Bureau de Vote Yaoundé VI — Ekounou 364,Yaoundé,Yaoundé VI,Ekounou,Centre communautaire,3.890377,11.477364,+237 679 770 785,2,Oui,504,176,5,171,0.35,82,22,8,5,27,27,504,295,9,286,0.586,193,3,24,35,3,28,504,319,4,315,0.633,162,33,31,20,23,46
BV-YAO-0365,Bureau de Vote Ngoa-Ekélé 365,Yaoundé,Yaoundé VII,Ngoa-Ekélé,Centre social,3.852364,11.513931,+237 690 068 664,1,Oui,356,210,8,202,0.592,112,2,21,29,11,27,356,136,3,133,0.383,77,7,2,15,15,17,356,210,7,203,0.591,130,3,14,19,15,22
BV-YAO-0366,Bureau de Vote Mvog-Beti 366,Yaoundé,Yaoundé II,Mvog-Beti,Centre culturel,3.785454,11.583233,+237 677 764 842,3,Non,753,530,12,518,0.705,239,83,28,22,62,84,753,348,4,344,0.463,165,24,20,34,47,54,753,381,9,372,0.506,268,23,20,22,7,32
BV-YAO-0367,Centre de Vote de Santa Barbara — Salle 4,Yaoundé,Yaoundé III,Santa Barbara,Centre social,3.873366,11.396767,+237 693 243 229,1,Non,1177,603,19,584,0.513,401,7,27,53,41,55,1177,562,14,548,0.478,390,39,36,32,3,48,1177,429,14,415,0.365,273,29,6,28,36,43
BV-YAO-0368,Centre de Vote de Ekounou — Salle 1,Yaoundé,Yaoundé I,Ekounou,École primaire,3.785057,11.471582,+237 233 072 644,1,Non,251,156,5,151,0.625,81,15,14,15,5,21,251,107,2,105,0.429,85,3,3,4,4,6,251,63,2,61,0.255,39,3,5,2,5,7
BV-YAO-0369,Bureau de Vote Nkomo N°2,Yaoundé,Yaoundé II,Nkomo,Centre culturel,3.841542,11.512161,+237 692 812 910,4,Non,901,567,24,543,0.629,259,102,75,8,13,86,901,549,5,544,0.61,401,41,23,12,24,43,901,473,14,459,0.526,309,10,16,33,46,45
BV-YAO-0370,Lycée de Oyomabang — Bureau 8,Yaoundé,Yaoundé VI,Oyomabang,Lycée,3.882461,11.429654,+237 233 040 191,1,Non,529,211,6,205,0.399,162,8,10,9,3,13,529,182,3,179,0.345,96,4,4,34,16,25,529,272,10,262,0.515,155,9,31,17,18,32
BV-YAO-0371,Bureau de Vote Nkol-Eton 371,Yaoundé,Yaoundé I,Nkol-Eton,Centre social,3.849013,11.567721,+237 690 489 082,2,Non,705,493,22,471,0.699,275,28,54,28,27,59,705,284,3,281,0.404,131,28,15,21,41,45,705,441,16,425,0.627,238,35,26,36,34,56
BV-YAO-0372,Bureau de Vote Biyem-Assi N°19,Yaoundé,Yaoundé V,Biyem-Assi,Centre communautaire,3.769402,11.506872,+237 677 737 619,1,Non,834,487,5,482,0.584,278,20,51,52,19,62,834,476,9,467,0.571,278,57,13,46,16,57,834,447,18,429,0.536,210,26,34,16,77,66
BV-YAO-0373,École primaire Nsimeyong,Yaoundé,Yaoundé II,Nsimeyong,École primaire,3.921171,11.570239,+237 690 072 383,2,Non,1063,385,8,377,0.363,221,34,19,17,39,47,1063,728,29,699,0.686,334,62,18,12,163,110,1063,503,16,487,0.474,241,32,15,59,66,74
BV-YAO-0374,Bureau de Vote Nkolbikok 374,Yaoundé,Yaoundé V,Nkolbikok,Salle polyvalente,3.869451,11.587306,+237 690 034 274,3,Non,350,242,9,233,0.694,157,17,4,14,18,23,350,198,6,192,0.566,89,25,12,23,12,31,350,173,2,171,0.496,98,21,16,10,4,22
BV-YAO-0375,Bureau de Vote Ngoa-Ekélé N°19,Yaoundé,Yaoundé II,Ngoa-Ekélé,Centre communautaire,3.770383,11.528298,+237 693 056 586,4,Oui,543,315,11,304,0.581,192,9,23,21,25,34,543,191,7,184,0.353,145,1,6,6,14,12,543,271,4,267,0.5,187,23,3,16,14,24
BV-YAO-0376,Collège Biyem-Assi,Yaoundé,Yaoundé I,Biyem-Assi,Collège,3.776873,11.489361,+237 679 501 441,2,Non,978,467,5,462,0.478,290,19,46,23,32,52,978,337,7,330,0.345,215,22,18,19,21,35,978,544,12,532,0.556,315,58,11,28,55,65
BV-YAO-0377,Bureau de Vote Yaoundé VI — Biyem-Assi 377,Yaoundé,Yaoundé VI,Biyem-Assi,Centre social,3.882545,11.540967,+237 233 448 578,3,Oui,1070,645,13,632,0.604,469,27,26,37,24,49,1070,614,9,605,0.574,386,34,49,63,7,66,1070,288,11,277,0.27,217,10,5,21,6,18
BV-YAO-0378,Bibliothèque municipale de Nkozoa — Bureau 4,Yaoundé,Yaoundé VII,Nkozoa,Bibliothèque municipale,3.841027,11.573449,+237 677 124 641,3,Non,824,394,15,379,0.478,203,44,32,5,42,53,824,415,18,397,0.504,241,21,30,45,13,47,824,488,18,470,0.593,331,22,15,41,19,42
BV-YAO-0379,Bureau de Vote Yaoundé VII — Obili 379,Yaoundé,Yaoundé VII,Obili,Mairie,3.846349,11.449092,+237 690 788 381,2,Oui,617,300,12,288,0.487,229,9,13,14,5,18,617,343,12,331,0.557,216,37,11,19,13,35,617,155,7,148,0.252,104,11,6,12,2,13
BV-YAO-0380,Bibliothèque municipale Mvog-Mbi,Yaoundé,Yaoundé V,Mvog-Mbi,Bibliothèque municipale,3.886477,11.474818,+237 692 036 275,4,Non,1039,682,23,659,0.657,466,27,30,48,30,58,1039,709,24,685,0.683,472,14,37,62,36,64,1039,489,18,471,0.472,300,45,52,7,16,51
BV-YAO-0381,Collège de Mimboman — Bureau 1,Yaoundé,Yaoundé VII,Mimboman,Collège,3.913647,11.541754,+237 693 862 965,3,Oui,553,257,10,247,0.465,142,8,28,17,20,32,553,197,4,193,0.357,120,15,13,19,4,22,553,300,11,289,0.543,224,10,22,7,6,20
BV-YAO-0382,Bureau de Vote Yaoundé III — Nkomo 382,Yaoundé,Yaoundé III,Nkomo,École primaire,3.821219,11.395952,+237 694 909 710,1,Non,751,265,13,252,0.354,176,17,24,5,7,23,751,469,13,456,0.625,351,10,16,25,22,32,751,400,8,392,0.533,187,25,47,33,38,62
BV-YAO-0383,École primaire de Messa — Bureau 3,Yaoundé,Yaoundé I,Messa,École primaire,3.804368,11.481482,+237 678 918 363,1,Non,973,620,24,596,0.637,287,12,33,89,82,93,973,569,12,557,0.585,351,76,21,5,42,62,973,453,15,438,0.467,248,33,43,9,48,57
BV-YAO-0384,Bureau de Vote Nkozoa N°10,Yaoundé,Yaoundé V,Nkozoa,Centre culturel,3.757073,11.560018,+237 242 321 262,2,Non,825,411,5,406,0.499,312,22,22,6,15,29,825,320,11,309,0.389,200,23,18,18,17,33,825,330,8,322,0.4,168,26,18,30,33,47
BV-YAO-0385,Centre social Émana,Yaoundé,Yaoundé VI,Émana,Centre social,3.886686,11.420966,+237 233 365 179,3,Oui,675,245,10,235,0.363,169,20,15,10,1,20,675,434,15,419,0.643,237,27,49,38,13,55,675,424,17,407,0.628,244,42,7,29,36,49
BV-YAO-0386,Mairie Étoa-Meki,Yaoundé,Yaoundé V,Étoa-Meki,Mairie,3.849487,11.486107,+237 679 131 765,4,Oui,307,228,9,219,0.744,172,16,9,3,5,14,307,155,6,149,0.507,73,5,7,30,11,23,307,177,8,169,0.578,101,8,7,6,26,21
BV-YAO-0387,Salle polyvalente de Ekounou — Bureau 5,Yaoundé,Yaoundé IV,Ekounou,Salle polyvalente,3.807889,11.527741,+237 691 855 078,2,Oui,190,127,2,125,0.672,84,4,8,8,8,13,190,80,1,79,0.424,53,4,5,8,1,8,190,112,4,108,0.593,76,1,1,8,12,10
BV-YAO-0388,Centre de Vote de Mvog-Ada — Salle 2,Yaoundé,Yaoundé V,Mvog-Ada,Mairie,3.923072,11.425378,+237 679 038 558,2,Non,297,166,5,161,0.561,91,6,14,11,18,21,297,143,5,138,0.482,110,7,1,1,10,9,297,111,4,107,0.376,65,2,10,6,11,13
BV-YAO-0389,Bureau de Vote Mendong N°5,Yaoundé,Yaoundé III,Mendong,Centre communautaire,3.893518,11.53086,+237 233 375 973,1,Non,893,662,16,646,0.742,451,22,14,44,56,59,893,433,17,416,0.485,320,9,24,13,21,29,893,580,16,564,0.65,384,22,33,37,34,54
BV-YAO-0390,Bureau de Vote Obili N°9,Yaoundé,Yaoundé VII,Obili,Mairie,3.917047,11.585043,+237 677 626 003,2,Non,367,239,11,228,0.651,123,26,15,13,19,32,367,124,5,119,0.34,74,15,4,5,7,14,367,174,3,171,0.475,81,21,22,8,12,27
BV-YAO-0391,Centre de Vote de Nkolbisson — Salle 4,Yaoundé,Yaoundé VII,Nkolbisson,Mairie,3.845858,11.430634,+237 692 106 352,4,Non,1156,580,25,555,0.503,420,26,14,31,23,41,1156,433,13,420,0.375,325,7,15,23,21,29,1156,638,22,616,0.552,313,52,23,54,83,91
BV-YAO-0392,Mairie de Carrière — Bureau 1,Yaoundé,Yaoundé VII,Carrière,Mairie,3.903998,11.441516,+237 233 923 525,3,Oui,411,292,14,278,0.711,217,12,12,7,12,18,411,196,9,187,0.477,101,9,23,18,10,26,411,126,3,123,0.307,83,6,7,5,10,12
BV-YAO-0393,Bureau de Vote Kondengui N°3,Yaoundé,Yaoundé II,Kondengui,Bibliothèque municipale,3.8564,11.568617,+237 679 544 302,4,Non,543,219,10,209,0.405,100,15,29,9,23,33,543,344,15,329,0.635,182,43,15,31,14,44,543,329,5,324,0.607,165,30,22,27,32,48
BV-YAO-0394,Bureau de Vote Mvog-Beti 394,Yaoundé,Yaoundé VII,Mvog-Beti,Collège,3.823849,11.402291,+237 691 738 395,1,Oui,1133,709,13,696,0.626,455,53,29,38,48,73,1133,451,10,441,0.399,269,19,21,63,17,52,1133,462,13,449,0.408,272,27,76,7,14,53
BV-YAO-0395,École primaire Nkol-Afeme,Yaoundé,Yaoundé IV,Nkol-Afeme,École primaire,3.904713,11.497323,+237 679 053 531,2,Non,711,446,6,440,0.628,225,56,39,22,33,65,711,335,9,326,0.472,254,16,22,3,9,22,711,271,11,260,0.382,205,13,7,16,2,17
BV-YAO-0396,Bureau de Vote Yaoundé VII — Mvog-Atangana 396,Yaoundé,Yaoundé VII,Mvog-Atangana,Collège,3.896971,11.597403,+237 690 542 097,2,Oui,447,228,3,225,0.511,148,14,10,2,28,23,447,223,2,221,0.499,129,25,13,10,16,28,447,265,5,260,0.593,162,19,11,17,21,30
BV-YAO-0397,Centre de Vote de Mokolo — Salle 1,Yaoundé,Yaoundé II,Mokolo,Collège,3.756447,11.509767,+237 243 442 395,4,Non,470,285,4,281,0.608,198,20,18,9,11,25,470,182,3,179,0.388,135,3,9,10,9,13,470,260,12,248,0.555,153,26,8,10,22,29
BV-YAO-0398,Bureau de Vote Tsinga 398,Yaoundé,Yaoundé II,Tsinga,Centre social,3.880041,11.534632,+237 242 329 987,3,Non,907,382,17,365,0.422,255,28,9,24,16,33,907,292,11,281,0.322,157,24,17,26,20,37,907,491,20,471,0.541,326,35,19,11,36,44
BV-YAO-0399,Bibliothèque municipale Nkozoa,Yaoundé,Yaoundé IV,Nkozoa,Bibliothèque municipale,3.863089,11.471503,+237 693 034 905,1,Non,199,89,1,88,0.451,63,3,9,1,4,8,199,117,4,113,0.59,81,6,7,8,1,10,199,78,3,75,0.392,47,5,9,3,2,9
BV-YAO-0400,Collège de Mvan — Bureau 6,Yaoundé,Yaoundé I,Mvan,Collège,3.806002,11.428032,+237 242 691 589,4,Non,1031,662,10,652,0.643,461,41,41,42,9,58,1031,701,17,684,0.68,320,49,22,106,78,109,1031,276,9,267,0.268,129,32,38,20,6,42
BV-YAO-0401,Centre social de Olembe — Bureau 7,Yaoundé,Yaoundé IV,Olembe,Centre social,3.836585,11.529993,+237 692 062 834,4,Oui,1086,765,24,741,0.705,414,77,26,73,53,98,1086,599,14,585,0.552,286,20,41,47,101,90,1086,534,26,508,0.493,390,9,24,27,22,36
BV-YAO-0402,Centre de Vote de Nkomo — Salle 1,Yaoundé,Yaoundé III,Nkomo,Collège,3.874493,11.512174,+237 233 834 644,3,Oui,978,465,15,450,0.476,257,33,35,55,12,58,978,651,30,621,0.666,381,34,54,31,49,72,978,632,26,606,0.647,337,47,78,52,11,81
BV-YAO-0403,Bureau de Vote Yaoundé VII — Olembe 403,Yaoundé,Yaoundé VII,Olembe,Mairie,3.908922,11.412401,+237 692 324 368,4,Oui,597,330,10,320,0.553,209,18,29,16,14,34,597,277,2,275,0.465,183,14,22,21,7,28,597,236,4,232,0.395,183,8,9,8,9,15
BV-YAO-0404,Centre social de Nkolbikok — Bureau 3,Yaoundé,Yaoundé II,Nkolbikok,Centre social,3.926924,11.525288,+237 243 045 628,4,Non,790,468,10,458,0.594,220,58,43,36,29,72,790,243,4,239,0.308,140,20,17,7,25,30,790,199,8,191,0.253,131,10,4,23,5,18
BV-YAO-0405,Centre de Vote de Mimboman — Salle 1,Yaoundé,Yaoundé VII,Mimboman,Centre culturel,3.913519,11.554517,+237 693 158 821,2,Non,496,272,13,259,0.55,202,16,8,9,7,17,496,232,9,223,0.468,107,20,21,25,15,35,496,186,5,181,0.376,102,10,5,17,23,24
BV-YAO-0406,Bureau de Vote Mvog-Atangana N°18,Yaoundé,Yaoundé I,Mvog-Atangana,Centre culturel,3.828682,11.448233,+237 691 314 895,1,Non,926,558,20,538,0.603,291,44,9,49,71,74,926,499,23,476,0.539,255,23,27,60,44,67,926,440,9,431,0.476,213,44,29,34,45,66
